license_,aka_name,latitude,longitude,avg_violations,times_inspected,binary_results,model_prediction,logistic_model_prediction
2677227,NECESSARY & SUFFICIENT COFFEE,41.92835153,-87.7180971,4,3,1,0,0
2670530,SKY DINE 311,41.87779165,-87.63652434,0,2,1,0,0
2333622,I-CAFE SUKUR'S PLACE,41.95431818,-87.67476032,11,2,1,0,0
1140128,MCDONALD'S  (T3 HK FOOD COURT),42.0085364,-87.91442844,5,3,1,0,0
2665419,CONVENE,41.87988544,-87.62921159,0,1,1,0,0
2684666,ALEXANDER'S,41.99439118,-87.67029582,7.5,2,1,0,0
2600832,T&T'S RED HOTS,41.88184591,-87.72585415,0,1,1,0,0
2683667,PACINOS,,,7.5,2,1,0,0
2683668,PACINOS,,,0,2,1,0,0
2564709,KING GYROS,41.75061951,-87.6344093,16,1,2,1,1
2627322,"OFRENDA, INC.",41.84361888,-87.67547236,7,1,1,0,0
2569868,HUARACHES & QUESADILLAS MAMA QUINA,41.80061942,-87.71045585,3,1,1,0,0
2657753,#1 DELI,41.76886619,-87.63709546,3,1,1,0,0
2608331,SMOOTHIE JOINT,41.94457106,-87.65378324,9,1,2,0,0
2516680,THE LEARNING EXPERIENCE,41.9902049,-87.73177134,1,1,2,0,0
2677669,OPUS,41.87942967,-87.62527091,9,3,1,2,2
22761,Clissold,41.69305404,-87.6808619,2,1,2,0,0
2569420,EL ROJO GUSANO II,41.9584248,-87.67374278,17,2,1,0,0
2684666,ALEXANDER'S,41.99439118,-87.67029582,7.5,2,2,1,1
2022125,"COYOTES RESTAURANT, INC.",41.85773127,-87.66335578,7,1,1,0,0
23081,Edwards main and annex building,41.80552325,-87.72581893,5,1,1,0,0
13976,ALDI INC #64,41.91334247,-87.68182248,7.666666667,3,2,0,0
2689697,BOLIVAR Y LINCOLN VENEZUELAN,41.94319768,-87.65405955,5.5,2,1,0,0
2289529,SALSITA,41.94933813,-87.64969635,5.5,2,2,2,1
23971,KELLOGG ELEMENTARY SCHOOL,41.72525315,-87.67719555,4,1,2,0,0
2683669,PACINOS,,,0,2,1,0,0
2215893,WHIZ KIDS NURSERY CENTER INC.,41.70711281,-87.63620425,1,1,1,0,0
2677672,OPUS,41.87942967,-87.62527091,0,2,1,0,0
2677671,OPUS,41.87942967,-87.62527091,0,2,1,0,0
1769881,DUNKIN DONUTS/BASKIN ROBBINS,41.78534019,-87.70317432,14,1,1,0,0
2364283,SUPER SUB AND GYROS 2 INC.,41.77911845,-87.68575152,7,1,1,0,0
2689806,ROOTS HANDMADE PIZZA - SECOND CITY/UTOPIAN TAILGAT,41.91149437,-87.6348681,0,1,1,1,1
3096670,KIPP CHARTER ELEMENTARY,41.89148297,-87.74659826,0.5,2,1,1,1
2663728,"I'M HUNGRY NOW!!, LLC",41.73592705,-87.64616369,5.5,2,2,1,1
2496153,PIZZERIA BRANDI,41.83574906,-87.66584167,4,1,1,0,0
22801,COOK ELEMENTARY SCHOOL,41.74526284,-87.6598119,4,1,2,0,0
26651,MAHALIA JACKSON ELEMENTARY SCHOOL,41.73409818,-87.64675679,3.5,2,1,1,1
2689420,OROMO CAFE BUCKTOWN,41.9161857,-87.68752369,6,2,2,0,0
1516376,TARGET,41.93083392,-87.78913379,3.333333333,3,1,2,1
68487,KITSCH'N ON ROSCOE,41.94310456,-87.67867885,6,2,1,1,1
2689695,FOXGLOVE COFFEE,41.8538683,-87.67821915,1.5,2,1,0,0
1247262,TAVERN ON LITTLEFORT,41.95677163,-87.68075734,6.5,2,1,0,0
1648670,PANERA BREAD #1004,41.87517906,-87.62747379,2,1,2,1,1
41897,CHUCK 'E' CHEESE'S,41.80167003,-87.70393836,1,1,1,0,0
2202622,ROWE-CLARK MATH & SCIENCE ACADEMY,41.89533478,-87.7180503,2,1,1,1,1
1592986,CARNITAS Y SUPERMERCADO EL GIGANTE INC,41.92600643,-87.75636298,14.5,2,1,0,0
2363811,THE GERAGHTY,41.84607804,-87.6782501,0,1,1,0,0
2689944,CHINKAY,41.93387296,-87.74653841,20,1,2,0,0
2121132,SUBWAY,41.98354699,-87.65810609,2.333333333,3,1,1,1
1817276,PAT'S PIZZA,41.87396104,-87.63080445,8,1,1,1,1
2360157,PANDA EXPRESS,41.94654251,-87.70247583,4,1,1,1,1
1495075,BUDACKIS DRIVE-IN HOT DOGS,41.96807497,-87.6790196,9.5,2,2,0,0
2684069,KIDDIE ACADEMY OF CHICAGO-LINCOLN SQUARE,41.97055022,-87.68993651,4,2,2,0,0
2221636,ZIA'S LAGO VISTA,41.95118641,-87.66882564,9,2,2,0,0
2422801,IRIE TAVERN,41.94364615,-87.65382314,13,2,1,0,0
2677149,BROWN BAG SEAFOOD CO.,41.87856015,-87.63652387,0.5,2,1,0,0
2303640,WAGNERS BAKERY,41.85221558,-87.68024388,6,1,1,0,0
2689937,MERCY ASIAN FOOD,41.997689,-87.69849449,4,1,1,0,0
2641483,REGENTS MARKETS,41.80263005,-87.58447171,0,1,2,0,0
2641480,REGENTS MARKETS,41.80263005,-87.58447171,5,1,2,0,0
2689051,2337 MILWAUKEE,41.92375997,-87.69851608,9,1,2,0,0
2293923,EL CONDE S.A.,41.79959746,-87.70358496,4,1,1,0,0
2677462,THE LUNCHROOM,41.88209337,-87.63039164,0,1,1,0,0
2652969,YEMEN RESTAURANT,41.96766784,-87.74018351,4.333333333,3,1,0,0
2496427,LUNA LLENA SPORTS GRILL,41.93856566,-87.75855584,7,3,1,0,0
2609440,GHIN KHAO EAT RICE,41.85222861,-87.67948333,4,1,1,0,0
1542917,VOLO RESTAURANT,41.94332263,-87.6788491,6,1,1,0,0
33511,TAQUERIA EL AGUILA REAL,41.96129816,-87.7079521,11,1,1,0,0
2059922,La PALOMA GROCERY STORE,41.77866865,-87.73115965,4.5,2,1,0,0
2289372,LIZ-NEY-LAND LEARNING CENTER,41.78390333,-87.7230554,5,2,1,0,0
2689644,MOMO FACTORY,41.94015821,-87.64455028,4.5,2,1,0,0
2446871,SYMPHONY OF LINCOLN PARK,41.92533056,-87.66312244,14,1,2,0,0
2446479,SMART LOVE FAMILY SERVICES,41.92183537,-87.70727253,0,1,1,0,0
2224822,SOUTHWEST SENIOR CENTER / GOLDEN DINER,41.78209814,-87.70307837,5,1,2,0,0
2215544,CHILDREN'S CENTER INC,41.66132602,-87.64121031,2,1,1,0,0
2451378,FLACO'S TACOS,41.99467731,-87.65903118,2.5,4,1,0,0
13976,ALDI INC #64,41.91334247,-87.68182248,7.666666667,3,2,0,0
2404396,NORTHSIDE GRILL,41.9597925,-87.72783184,15,1,2,0,0
2121132,SUBWAY,41.98354699,-87.65810609,2.333333333,3,1,0,0
2689052,2337 MILWAUKEE,41.92375997,-87.69851608,0,1,2,0,0
2677463,THE LUNCHROOM,41.88209337,-87.63039164,0,1,1,0,0
2583393,RED FISH BLEU FISH,41.80195099,-87.58899849,6,1,1,0,0
2665376,THE LOTUS BLACK,41.91075187,-87.6668909,9.5,2,1,0,0
2496025,CAIRO KEBOB,41.92528007,-87.66677401,18,1,2,0,0
2215610,MOTHER'S TOUCH DAY CARE,41.76454716,-87.68574595,3,1,1,0,0
29401,DISNEY MAGNET,41.95680712,-87.6461175,7,1,1,1,1
2615645,LA BAGUETTE BAKERY,41.78639755,-87.70320569,5,1,1,0,0
1223250,LOS SAUCES GROCERY,41.9312882,-87.77324145,10,1,2,0,0
2689945,7 SEAS FOOD & DELI INC.,41.73588386,-87.64913691,12,2,1,0,0
2637301,FOREVER YOGURT,41.931466,-87.68656176,12.5,2,1,0,0
2608171,SHAWARMA STOP,41.93617191,-87.65340849,7.5,4,1,0,0
22601,Carson (Old),,,5,1,2,0,0
31782,CROATIAN CULTURAL CENTER OF CHICAGO,41.99741972,-87.70142268,3,1,1,0,0
2492802,MONTEALBAN,41.92392648,-87.77632683,11,2,2,0,0
2304758,JOHN'S LIVE POULTRY,41.92372039,-87.77549546,2.666666667,3,1,0,0
2589605,PANCAKE CAFE,41.95127391,-87.64947156,10,2,2,0,0
1516376,TARGET,41.93083392,-87.78913379,3.333333333,3,2,0,0
1991748,SKY DINE 311,41.87779165,-87.63652434,9,1,2,0,0
2412516,OYSTER ON HALSTED,41.91775186,-87.64863789,7.5,2,1,1,1
2429057,"PALETERIA LA  MICHOACANA 1, INC.",41.78624118,-87.71077772,12,1,2,0,0
2368244,LOU MALNATI'S PIZZERIA,41.96074325,-87.6835484,2,1,1,0,0
2229533,DIMO'S PIZZA SIX CORNERS,41.91091779,-87.6773264,21,1,2,0,0
2355266,ADLER SCHOOL INC,41.96855383,-87.68548253,5.5,2,1,0,0
2373877,SNOW DRAGON,41.93008289,-87.64368254,8,2,1,0,0
25946,BLACK SHEEP,41.99036569,-87.6935329,9,1,1,0,0
2529296,AROUND THE WAY MINI MART,41.88396661,-87.75534387,2,1,1,0,0
2670530,SKY DINE 311,41.87779165,-87.63652434,0,2,2,0,0
2678083,MIKKEYS 47 EXPRESS LLC,41.80931768,-87.61371444,10.66666667,3,1,0,0
1873308,"MANOLOS TAMALES, INC. #1",41.79595669,-87.7034796,11.5,2,2,0,0
2529177,KALEIDOKIDS,41.92130256,-87.67760256,8.5,2,1,0,0
2195981,Kim Long Restaurant,41.92424242,-87.7543435,14,1,2,0,0
27480,DOUBLE HAPPINESS,41.9731684,-87.65736358,7,1,1,0,0
23261,FOSTER PARK ELEMENTARY SCHOOL,41.7384262,-87.66813597,2,1,1,0,0
2040649,HOLY FAMILY LUTHERAN SCHOOL,41.86988498,-87.7113089,0,1,1,0,0
2215620,WONDERLAND DAY CARE,41.93823375,-87.78428872,0,1,1,0,0
2683446,COFFEE LAB & ROASTERS,41.93317721,-87.65936357,0,2,1,0,0
69457,Acad. Of Scholastic Ach,41.88042013,-87.74250356,0,1,1,0,0
2677227,NECESSARY & SUFFICIENT COFFEE,41.92835153,-87.7180971,4,3,2,0,0
2177836,BULERIAS TAPAS BAR,41.94866423,-87.66905079,12,1,1,0,0
31036,"ITALIAN FIESTA PIZZERIA, INC",41.7470861,-87.64408438,6.5,2,1,1,1
2405902,THE CAJUN CONNOISSEUR LLC,41.85045102,-87.65879786,2.666666667,3,1,0,0
2215809,RAVENSWOOD COMMUNITY DAYCARE,41.9708886,-87.67939623,5,1,2,1,1
68487,KITSCH'N ON ROSCOE,41.94310456,-87.67867885,6,2,2,2,1
2245580,LAKEVIEW REHABILITATION AND NURSING CENTER,41.93263163,-87.64797278,7,1,2,0,0
22281,JOPLIN ELEMENTARY SCHOOL,41.74934082,-87.66932903,2,1,1,1,1
2664090,TBD,41.89571882,-87.61873143,0,1,1,1,1
1981908,Queen of All Saints,41.99458701,-87.74456342,5,1,1,1,1
2487637,HANUL FAMILY ALLIANCE,41.97240584,-87.70873682,13,1,2,0,0
1675154,SIX CORNER BAKERY,41.9537812,-87.74815775,8,1,2,0,0
2560363,HERO COFFEE BAR,41.88177941,-87.65438027,7,1,1,0,0
2221191,GEORGE E TAYLOR CHILD DEVELOPMENT CENTER,41.9029293,-87.70804857,1,1,1,0,0
2523672,LOOMIS CITGO INC.,41.73597329,-87.65806838,4,1,1,0,0
2556107,HUTCH AMERICAN KITCHEN AND BAR,41.97326137,-87.66762286,5,3,1,0,0
2608056,O-MANNY MEXICAN RESTAURANT,41.95362792,-87.71947321,0,2,1,1,1
2626774,HAKKA BAKKA,41.88569112,-87.65228969,3.8,5,1,1,2
2308003,OLD GROUNDS SOCIAL,41.92912424,-87.65333792,5.666666667,3,2,0,0
2541870,"L & L LP INFANT, CORP.",41.92492415,-87.64022309,0,1,1,0,0
2684671,Pastoral,41.88418751,-87.64111967,0,1,1,0,0
2079685,WEBSTER'S WINE BAR,41.9288491,-87.70681721,9.333333333,3,1,1,1
2664105,DOPPIO COFFEE HOUSE,41.93772482,-87.66631958,1,2,1,0,0
2109251,MARIO'S BUTCHER SHOP,41.88004498,-87.77049338,7,1,1,1,1
2646756,TBD,41.89571882,-87.61873143,3,2,1,0,0
2469779,L & L ACADEMY AND PRESCHOOL,41.92497231,-87.64025215,4,1,1,0,0
1948872,EL CID TACOS #2,41.92976286,-87.70722323,15,1,2,0,0
2609439,THE TAMALE SPACESHIP,41.85058668,-87.67074549,5,2,1,2,1
2689644,MOMO FACTORY,41.94015821,-87.64455028,4.5,2,2,0,0
2488830,PISOLINO,41.93928538,-87.69733595,3.5,2,1,1,1
2333622,I-CAFE SUKUR'S PLACE,41.95431818,-87.67476032,11,2,2,0,0
1998846,Pastoral,41.88418751,-87.64111967,5.5,2,1,0,0
2626305,"EL AZTECA SANCHEZ, INC.",41.85045102,-87.65879786,1.5,2,1,0,0
2578374,TERIYAKI BOWL,41.8839051,-87.70605925,3,2,1,1,1
23369,EAST OF EDENS,41.99714701,-87.74849096,17,1,1,0,0
2184967,BRASA ROJA RESTAURANT,41.94627055,-87.72754493,9,1,1,0,0
2215884,HOUSE OF KIDS,41.94539701,-87.80571712,1,1,1,0,0
2215643,CENTRO NUESTRO CHILD DEVELOPMENT CENTER,41.90293279,-87.70769386,1,1,1,1,1
57689,LITTLE DENNIS,41.77893001,-87.69859995,15,2,1,0,0
30212,POPEYE'S CHICKEN,41.93878413,-87.75863714,12.5,2,1,0,0
1991820,RED SNAPPER FISH CHICKEN & PIZZA,41.88023654,-87.75722039,7.666666667,3,1,0,0
66919,LATIN AMERICAN BAKERY,41.92466334,-87.72095975,14,1,2,0,0
2684391,TOSTINI,42.0079321,-87.67100363,3,1,1,1,1
2483908,CHEPE'S TACOS,41.8546947,-87.67576514,2,1,1,0,0
2589073,GOLDEN FISH & CHICKEN,41.77917311,-87.69698886,7,1,1,0,0
1969955,CHICKEN WORKS AND SALAD CO.,41.95385814,-87.71999799,6,1,1,0,0
2689945,7 SEAS FOOD & DELI INC.,41.73588386,-87.64913691,12,2,2,0,0
2447134,LITTLE PICKLE,41.92446191,-87.71957548,6,1,1,0,0
2463091,Chop Suey Huang,41.97597609,-87.69249422,21,1,1,0,0
2677857,DOLLAR TREE #07725,41.84428701,-87.71387967,2,1,1,0,0
2600906,GORILLA SUSHI,41.96828873,-87.7136772,11,1,1,1,1
1741003,TAQUERIA EL CHARO DE SAN FRANCISCO,41.70261923,-87.53430877,11,3,1,0,0
2689697,BOLIVAR Y LINCOLN VENEZUELAN,41.94319768,-87.65405955,5.5,2,2,0,0
2583931,REDLINE VR,41.96712525,-87.67480957,1.5,2,1,1,1
2518015,BRICKHOUSE TAVERN,41.94842204,-87.65732464,8,3,1,0,0
2385784,PERFECT BEGINNINGS CHILD DEVELOPMENT CENTER,41.67768507,-87.65901955,2.5,2,1,0,0
36126,LAWN MAGIC LOUNGE,41.76977201,-87.72267947,9.5,2,1,0,0
2431752,DUKE'S,41.98461843,-87.76815927,4.666666667,3,2,0,0
2670818,CRACKED ON MILWAUKEE,41.9066299,-87.67137624,0,2,1,0,0
2299114,VELVET TACO,41.90212753,-87.6285014,3,3,2,2,2
2647921,BOKEH,41.96716992,-87.7085787,0,2,1,0,0
1243865,JJ FISH,41.73558551,-87.67022566,9.5,2,1,0,0
1768216,JIMMY JOHN'S,41.86607359,-87.62426767,5,1,2,1,1
2102640,ST. ROBERT BELLARMINE,41.96486566,-87.77868958,4,1,1,0,0
3759848,ACERO VICTORIA SOTO HIGH SCHOOL,41.80175621,-87.71098826,2,1,1,1,1
2215472,BUSY BUMBLE BEE ACADEMY DAYCARE,41.77709239,-87.60600378,3,2,1,0,0
3096670,KIPP CHARTER ELEMENTARY,41.89148297,-87.74659826,0.5,2,2,0,0
2671113,CONVENE,41.88052759,-87.63562385,0,2,1,0,0
26651,MAHALIA JACKSON ELEMENTARY SCHOOL,41.73409818,-87.64675679,3.5,2,2,0,0
2671110,CONVENE,41.88052759,-87.63562385,12,2,1,0,0
2215932,IRVING PARK INFANT TODDLER CENTER,41.96132811,-87.70341968,0.5,2,1,1,1
2647920,BOKEH,41.96716992,-87.7085787,12.5,2,1,2,2
2245833,WALGREENS,41.9929375,-87.66021033,3,1,2,1,1
2298331,CARNITAS URUAPAN,41.85763235,-87.66977453,3,1,1,1,1
2684475,K & H FOOD MART PLUS,41.90551188,-87.725112,1,1,1,0,0
2689434,LA CEBOLLITA RESTAURANT,41.80764585,-87.73272528,4,1,1,0,0
2419455,THE JIBARITO STOP,41.85787346,-87.66812209,1,1,1,0,0
2670817,CRACKED ON MILWAUKEE,41.9066299,-87.67137624,7.333333333,3,1,0,0
2641367,TZUCO / TALES / PANANGO,41.89556403,-87.62831821,1,1,1,0,0
1592986,CARNITAS Y SUPERMERCADO EL GIGANTE INC,41.92600643,-87.75636298,14.5,2,2,2,2
2671036,PHILZ COFFEE,41.92425041,-87.64687752,3,1,1,0,0
2528511,LA BOMBA RESTAURANT,41.91728109,-87.7078566,16,5,1,0,0
2641369,TZUCO / TALES / PANANGO,41.89556403,-87.62831821,0,1,1,0,0
2079685,WEBSTER'S WINE BAR,41.9288491,-87.70681721,9.333333333,3,2,0,0
2689649,JIMMY JOHNS,41.95256564,-87.8112743,0,1,1,1,1
1844144,"SUNVIEW GROCERY & PRODUCE, INC.",41.77791532,-87.77446237,7.428571429,7,1,0,0
2678083,MIKKEYS 47 EXPRESS LLC,41.80931768,-87.61371444,10.66666667,3,2,0,0
2689433,QUEEN MARKET,41.90657322,-87.68726809,5,1,1,0,0
3759896,ACERO JOVITA IDAR CHARTER SCHOOL,41.80106791,-87.70883469,2.666666667,3,1,0,0
1998968,NEW SUPER SUB AND GYROS,41.7719277,-87.69369338,8,1,1,1,1
2202278,SUNNY'S BAR B QUE,41.75526283,-87.64430781,11,2,1,0,0
1817934,GAELIC IMPORTS,41.96852536,-87.7874394,11,1,1,0,0
1546100,DOMINO'S PIZZA,41.94086524,-87.80699551,6,1,2,0,0
2664128,THE LEARNING PLACE,41.75852367,-87.61480539,9.5,2,1,0,0
2626774,HAKKA BAKKA,41.88569112,-87.65228969,3.8,5,2,0,0
2683676,ROOSEVELT UNIVERSITY COFFEE SHOP,41.87624813,-87.62441918,5,3,1,0,0
48972,THE ORIGINAL NICKS GYROS,41.97671903,-87.78800131,17,1,1,0,0
25881,Wildwood,42.00747007,-87.77837089,2,1,2,0,0
2451966,WHALE FISH & CHICKEN,41.902223,-87.76768778,12,1,1,0,0
2627555,THE HATCHERY,41.8839051,-87.70605925,0.5,2,1,0,0
2589092,THE BLACK FIRE BRIGADE ORG.,41.74048386,-87.70228692,2.5,2,1,0,0
1953757,Fifolet Cajun,41.90331198,-87.67657337,16,2,1,0,0
2689652,SUBWAY,41.95354369,-87.71274347,3,1,1,0,0
2601982,EL CHURRITO3,41.74973848,-87.71810076,3.5,2,1,1,1
2671117,CONVENE,41.88052759,-87.63562385,0,2,1,2,1
2563433,TASTE OF CHINA,41.92757678,-87.65152817,11,1,1,0,0
1380524,LUCIANO'S GROCERY-18TH ST,41.85785657,-87.6694196,7,1,1,0,0
6503,HUB'S GYROS II,41.98222979,-87.6938395,14,1,1,1,1
2671118,CONVENE,41.88052759,-87.63562385,0,2,1,0,0
2671111,CONVENE,41.88052759,-87.63562385,0,2,1,2,1
2252227,JALAPENO GRILL,41.91757216,-87.69985903,18,1,2,0,0
1358027,THE CHOPPING BLOCK,41.96790068,-87.68794065,4,1,1,0,0
2188855,RED SNAPPER,41.77193063,-87.69343855,13,1,1,0,0
1980154,NEW LINE,41.88575261,-87.64116458,2,1,1,1,1
1247262,TAVERN ON LITTLEFORT,41.95677163,-87.68075734,6.5,2,2,0,0
2641368,TZUCO / TALES / PANANGO,41.89556403,-87.62831821,0,1,1,0,0
7214,ZACATECAS RESTAURANT,41.93133655,-87.75299705,14,1,2,1,1
2379215,NANDO'S PERI-PERI,41.93288386,-87.64627175,3.333333333,3,1,1,1
2689301,TANIA'S CATERING INC.,41.84832466,-87.67343416,5,1,1,0,0
2422984,GREAT DRAGON 78,41.94049364,-87.72591132,8,1,1,0,0
1980651,Irene C. Hernandez Middle School,41.79350627,-87.71139803,1,1,1,1,1
2216002,"LEARNING TREE PRESCHOOL AND NURSERY, INC.",41.78084306,-87.70304249,4,1,1,0,0
1050,MARTINO'S ITALIAN CUISINE & PIZZERIA,41.99019852,-87.71526237,6.5,2,1,0,0
2510693,DO-RITE DONUTS,41.88542085,-87.65198867,4,1,1,0,0
2541853,O'S DONUTS & CAFE INC,41.75466012,-87.74138476,15.5,2,1,0,0
2043260,THE DOCK AT MONTROSE BEACH,41.96390894,-87.63863625,8,3,1,1,1
2202308,KURAH,41.8642488,-87.62393363,12,1,1,0,0
2608171,SHAWARMA STOP,41.93617191,-87.65340849,7.5,4,2,1,1
2550253,NEW ORLEANS SEAFOOD,41.97339651,-87.65679875,8,1,1,0,0
2215838,LITTLE KIDS VILLAGE LEARNING,41.76468932,-87.69044084,3,1,1,0,0
2677822,RANGOON BURMA GROCERY STORE,41.99722245,-87.6945993,3.5,2,1,2,1
2663543,LA MOM KITCHEN,41.83436978,-87.64634011,4.666666667,3,1,0,0
2677408,LA MOM KITCHEN,41.83436978,-87.64634011,0,2,1,0,0
2689035,REAL GOOD STUFF CO,41.92493472,-87.64783287,1.5,2,1,0,0
2157363,SANDUNGA,41.96845445,-87.69461992,5.5,2,2,0,0
2617364,HEARTFELT CATERING,41.8899706,-87.66879885,2,1,1,0,0
2589062,DUNKIN DONUTS,41.77784508,-87.76638144,1,2,1,1,1
2621534,TIME MACHINE JUICE CO,41.88664925,-87.67766943,0.5,2,1,0,0
2657921,7-ELEVEN,41.97329204,-87.77824229,8.5,2,1,0,0
2688998,EL CAMPEON TACO BAR EXPRESS,41.98768869,-87.70307734,4,2,1,1,1
13976,ALDI INC #64,41.91334247,-87.68182248,7.666666667,3,2,2,2
2470706,CAFE #10,41.92792702,-87.80624603,2.5,2,1,0,0
21999,TACO & BURRITOS PALACE,41.9456985,-87.6492916,8.5,2,1,0,0
1770127,"FIG CATERING, LLC",41.85660309,-87.66240775,3,1,1,0,0
1916618,"KERASOTES SHOWPLACE THEATERS, LLC",41.86967389,-87.63236767,1,1,1,0,0
1802424,CARNICERIA Y FRUTERIA LOS ALTOS,41.82077153,-87.69940685,7.666666667,3,2,0,0
2569420,EL ROJO GUSANO II,41.9584248,-87.67374278,17,2,2,0,0
2528493,LA ESPERANZA RESTAURANT,41.85630665,-87.66265894,1,1,1,0,0
78302,EL ALEGRE BURRITO,41.92388497,-87.80619241,9,1,2,1,1
2289372,LIZ-NEY-LAND LEARNING CENTER,41.78390333,-87.7230554,5,2,2,0,0
2328295,AFC SUSHI @ TONY'S FINER FOODS,41.9768951,-87.69227967,5,1,1,0,0
2657924,7-ELEVEN,41.97329204,-87.77824229,0,2,1,0,0
2590204,NO BONES BEACH CLUB,41.91038686,-87.67683124,3.5,2,1,0,0
2689028,NEW CAJUN GRILL,41.75466012,-87.74138476,5,1,1,0,0
1841301,KOHAN JAPANESE RESTAURANT,41.86490157,-87.64629229,7,1,1,0,0
2392091,LOS TRES PANCHOS,41.93245781,-87.65805863,6,1,1,1,1
1874389,BEST TACO & BURRITO JOINT,41.92438087,-87.72620077,12.5,2,1,1,1
1445833,MCDONALDS,41.8096287,-87.60736974,8,2,2,0,0
1878475,ST. JOSAPHAT,41.92294129,-87.66309427,2,2,1,2,1
2550659,TOTS LAND,41.92820833,-87.80625626,1,1,1,0,0
2569510,"SOUP & SCOOPS, LLC",42.00238974,-87.81707622,10,2,2,2,1
2059922,La PALOMA GROCERY STORE,41.77866865,-87.73115965,4.5,2,2,1,1
2555919,POLPETTI ESPRESSO BAR,41.88418751,-87.64111967,1.5,2,1,0,0
1768994,SIAM COUNTRY,41.96623164,-87.67896609,13,1,1,0,0
2637301,FOREVER YOGURT,41.931466,-87.68656176,12.5,2,2,0,0
2683622,GATEWAY NEWSTAND,41.88053925,-87.63459246,1,2,1,0,0
2684735,LA DELICIA MICHOCANA,41.74524711,-87.72162642,2,2,1,0,0
2374705,FORBIDDEN ROOT,41.89611415,-87.67144255,7,2,1,0,0
2601569,XOCHIMILCO MEXICAN RESTAURANT,41.96155025,-87.68027083,1.5,2,1,0,0
2617180,BAYAN KO,41.96161928,-87.67502882,5,2,1,0,0
2040661,PROVIDENCE ST. MEL SCHOOL,41.87890206,-87.71568319,2,1,1,0,0
1986439,EAT AND RUN NFP,41.73562916,-87.66684643,6,5,1,0,0
2522334,JR'S RED HOTS,41.91746648,-87.68681624,13.5,2,1,1,1
2134292,IGNOTZ ONE DOOR SOUTH,41.8477534,-87.6829278,2,1,1,0,0
2683404,LEVEL UP NUTRITION,41.95871461,-87.70801929,4.333333333,3,1,0,0
2551920,MARISCOS LUIS-ITO,41.80768469,-87.72964243,6,2,1,0,0
2518015,BRICKHOUSE TAVERN,41.94842204,-87.65732464,8,3,2,0,0
2529177,KALEIDOKIDS,41.92130256,-87.67760256,8.5,2,2,0,0
2216100,LINCOLN SQUARE MONTESSORI SCHOOL,41.96838683,-87.70328936,5,2,1,0,0
2689414,FRESH STOP PRODUCE AND MARKET,41.9400399,-87.65275588,5,1,1,1,1
2600751,XAVIER'S CLUB,41.81226601,-87.68468335,5.5,2,1,0,0
2495771,"FITTINGLY DELICIOUS, LLC",41.9535518,-87.72667299,6,1,1,0,0
1902989,PUNTA CANA RESTAURANT INC.,41.92104505,-87.71214152,14,3,1,0,0
75437,XSPORT CAFE,41.96622739,-87.73718362,15,1,1,0,0
2216030,TOTS LAND,41.94523205,-87.81420343,1,1,1,0,0
2589605,PANCAKE CAFE,41.95127391,-87.64947156,10,2,2,0,0
2683289,TAQUERIA CHILO,41.70018568,-87.6424774,7,1,1,0,0
2215984,KIDS R FIRST LEARNING CENTER,41.7566817,-87.64434493,8,3,1,0,0
2355266,ADLER SCHOOL INC,41.96855383,-87.68548253,5.5,2,2,0,0
69608,CERMAK PRODUCE NO.4,41.91013224,-87.69460039,16.5,2,1,0,0
2405902,THE CAJUN CONNOISSEUR LLC,41.85045102,-87.65879786,2.666666667,3,2,0,0
2245840,RICO FRESH MARKET,41.91740411,-87.7156725,12.33333333,3,1,0,0
1741003,TAQUERIA EL CHARO DE SAN FRANCISCO,41.70261923,-87.53430877,11,3,2,1,1
70743,GATEWAY FOUNDATION-KEDZIE CENT,41.91219344,-87.70695426,5.5,2,1,0,0
2492802,MONTEALBAN,41.92392648,-87.77632683,11,2,2,0,0
0,ST. ATHANASIOS & JOHN  GREEK OROTHODOX CHURCH,41.95733431,-87.73273324,5.083333333,24,1,0,0
1276342,STARBUCK'S COFFEE #2636,41.90319559,-87.66996531,3,1,1,1,1
2683875,K I AFRICAN RESTAURANT,42.01258706,-87.67448205,7,2,1,0,0
2341098,THE GREEN DOOR,41.89463702,-87.63726863,3,1,2,0,0
3759896,ACERO JOVITA IDAR CHARTER SCHOOL,41.80106791,-87.70883469,2.666666667,3,2,0,0
2271372,BOMBON CAKE DESIGN,41.79073435,-87.72323768,5.5,2,1,0,0
28489,"WHITE CASTLE SYSTEM, INC.",41.88064565,-87.72337094,7,1,1,0,0
1045342,SUBWAY,41.92404417,-87.76894098,8,1,1,0,0
2689476,HELLO CHERRY ASIAN GROCERY AND MEATS,41.99766002,-87.68758784,1,1,1,1,1
2404371,LA JOSIE,41.88451686,-87.64739068,14,2,1,0,0
2671700,KEBAB GRILL,41.95586808,-87.68012287,9,1,1,0,0
31036,"ITALIAN FIESTA PIZZERIA, INC",41.7470861,-87.64408438,6.5,2,2,0,0
2476381,OAZAS,41.96836673,-87.70589094,4.25,4,1,0,0
1878441,HEFFERAN ELEMENTARY,41.87863685,-87.73583687,2,1,1,1,1
2488682,METRIC COFFEE CAFE,41.88664925,-87.67766943,4,1,1,0,0
2671044,DOLLAR TREE,41.75152942,-87.59248856,10,1,2,0,0
2358986,MUSIC BOX THEATRE,41.94985726,-87.66394689,9.5,2,1,0,0
2589065,CREAMERIA LA ORDENA #1,41.78434853,-87.7230655,11,1,1,0,0
1516376,TARGET,41.93083392,-87.78913379,3.333333333,3,2,0,0
2683667,PACINOS,,,7.5,2,2,0,0
2677408,LA MOM KITCHEN,41.83436978,-87.64634011,0,2,2,0,0
2397526,JJ MAXWELL STREET,41.72223201,-87.62520901,5,2,1,0,0
2677167,THE BOIL CAJUN SEAFOOD,41.90315323,-87.67258598,13,1,2,1,1
1275490,POTBELLY SANDWICH WORKS,41.88059896,-87.62990739,1,1,1,1,1
2671466,GO! GROCER,41.86400154,-87.62422573,0,2,1,0,0
2114895,A MIDWEST KITCHEN,41.98576297,-87.77712907,4,1,1,0,0
2630707,LAA-MUSHKILA RESTAURANT,41.99607256,-87.67035563,3,1,1,0,0
2560593,DUNKIN DONUTS,42.00072012,-87.66065603,5.666666667,3,1,0,0
2206836,SUNRISE OF LINCOLN PARK,41.9316042,-87.64459203,9,1,2,0,0
2688898,TASTY CHICKEN & BURGER,41.87082601,-87.74476764,0,1,1,0,0
2665045,EL RAYO TACOS,41.85045102,-87.65879786,2,1,1,1,1
1991820,RED SNAPPER FISH CHICKEN & PIZZA,41.88023654,-87.75722039,7.666666667,3,2,2,2
2437275,UMAMI BURGER,41.88422708,-87.65151814,9,1,2,0,0
2683669,PACINOS,,,0,2,2,0,0
57689,LITTLE DENNIS,41.77893001,-87.69859995,15,2,2,0,0
2683668,PACINOS,,,0,2,2,0,0
2446779,BRASA ROJA RESTAURANT,41.96130544,-87.70664826,3,1,1,0,0
2422801,IRIE TAVERN,41.94364615,-87.65382314,13,2,2,0,0
2632018,ZAIQA RESTAURANT,41.99767447,-87.68675631,14,2,1,0,0
2578261,LA CALAVERA,41.89623436,-87.66401079,7,1,1,0,0
2600522,GUS'S WORLD FAMOUS FRIED CHICKEN,41.88926542,-87.62786766,0.5,2,1,0,0
2517205,MINI PALAPITA,41.97083376,-87.74482422,14,1,1,0,0
2689134,INS MARKET,41.88356531,-87.63963728,1,2,1,0,0
2647921,BOKEH,41.96716992,-87.7085787,0,2,2,0,0
2652916,FARMER'S BEST MARKET,41.9237818,-87.78625367,0,2,1,0,0
1968904,KHAN BBQ RESTAURANT,41.99761869,-87.68993948,19,2,1,0,0
2688790,CHIPMUNKS,41.93299009,-87.64086757,3,2,1,0,0
3933,PAMPANGA'S CUISINE FILIPINO RESTAURANT,41.99753276,-87.76690074,9.5,2,1,0,0
2556107,HUTCH AMERICAN KITCHEN AND BAR,41.97326137,-87.66762286,5,3,2,0,0
2677168,THE BOIL CAJUN SEAFOOD,41.90315323,-87.67258598,0,1,2,0,0
2689465,LIL SAM,41.88585156,-87.74553253,1,1,1,0,0
2647920,BOKEH,41.96716992,-87.7085787,12.5,2,2,0,0
2358944,BARCELLO'S PIZZA,41.94568947,-87.73490603,11,2,1,0,0
12380,CHICAGO JOE'S,41.9541631,-87.68573203,4.5,2,1,0,0
67609,DELIGHTFUL  PASTRIES,41.96756178,-87.77586829,5,2,1,0,0
2341067,TAQUERIA 5 DE MAYO,41.96119792,-87.68929407,3,2,1,0,0
2528595,CROWN DAYCARE CENTER,41.9619503,-87.65460338,3,1,1,0,0
2583411,Independence  Tap,41.95377451,-87.72645871,9,1,2,1,1
2658305,SALSA PICANTE,41.89902107,-87.68677928,0,1,2,0,0
2671463,GO! GROCER,41.86400154,-87.62422573,11,2,1,0,0
2373877,SNOW DRAGON,41.93008289,-87.64368254,8,2,2,0,0
2663543,LA MOM KITCHEN,41.83436978,-87.64634011,4.666666667,3,2,0,0
1937785,BLUE ROOSTER EVENT CATERING,41.95460302,-87.67365219,4.5,2,1,0,0
2304758,JOHN'S LIVE POULTRY,41.92372039,-87.77549546,2.666666667,3,2,0,0
2404722,SALSA PICANTE,41.89902107,-87.68677928,7.5,2,2,0,0
2437247,MARTINEZ SUPERMARKET,41.83474332,-87.65091517,5,1,1,1,1
1844144,"SUNVIEW GROCERY & PRODUCE, INC.",41.77791532,-87.77446237,7.428571429,7,2,0,0
2386048,CAFE ROSA,41.79613355,-87.76038586,9.25,4,1,1,1
2423912,GHAREEB NAWAZ RESTAURANT,41.99798375,-87.68142045,8.2,5,1,0,0
1953757,Fifolet Cajun,41.90331198,-87.67657337,16,2,2,0,0
2232538,DOLLAR INN PLUS,41.99767157,-87.69958492,6,1,1,1,1
2688961,"ERWIN P. MCKENNIE, INC",41.88434006,-87.69668735,3,1,1,0,0
30962,UDUPI PALACE RESTAURANT,41.99755003,-87.69402395,6.5,2,1,2,1
1738519,GLENN'S DINER,41.96161213,-87.67543735,13,2,1,0,0
1243865,JJ FISH,41.73558551,-87.67022566,9.5,2,2,0,0
22676,HALF SHELL,41.93287909,-87.64650055,4,2,1,0,0
2418331,LITTLE KIDS VILLAGE LEARNING,41.77886107,-87.7167453,3,1,1,0,0
2683701,HANABUSA CAFE,41.88196533,-87.62679322,2.5,4,1,0,0
2094011,EPIC BURGER,41.8793928,-87.64162618,2,1,1,1,1
2215932,IRVING PARK INFANT TODDLER CENTER,41.96132811,-87.70341968,0.5,2,2,0,0
2177832,LE PIANO,42.00881369,-87.66635392,12.33333333,3,1,0,0
2578249,POPEYE'S,41.70750957,-87.60818282,7,1,2,0,0
1492765,BRIDGEPORT COFFEE HOUSE,41.83794297,-87.65099272,3,1,1,0,0
2411687,ABC LEARNING CENTER INC.,41.72148181,-87.63355138,0,1,1,0,0
2358944,BARCELLO'S PIZZA,41.94568947,-87.73490603,11,2,2,2,1
2088718,PALETERIA LA PLAZA,41.93660299,-87.7469461,5,1,1,0,0
2314545,YOLK,41.93275742,-87.64148773,7.5,2,1,1,1
2114749,NEW LOVE TERIYAKI,41.82273508,-87.69448432,6,1,1,0,0
2129398,PANERA BREAD,41.88216417,-87.62451427,1.5,2,1,0,0
2609641,"HEALTHY ORGANIC KIDS,INC",41.90512375,-87.74617353,8,1,1,0,0
2294282,VILLA ROSA PIZZA,41.79651795,-87.7579178,7,1,1,1,1
2134060,WINGSTOP #587,41.79401754,-87.77414737,6,1,1,0,0
2314597,FERMIN'S POULTRY INC,41.78498088,-87.7230814,4,3,1,0,0
1821756,Ukrainian Cultural Center,41.89569168,-87.68343549,8,1,1,0,0
1772533,DUNKIN DONUTS,41.95823368,-87.75222572,3,1,1,1,1
2412626,CHIPMUNKS,41.93299009,-87.64086757,10,2,1,0,0
80290,DYLAN'S TAVERN & GRILL,41.87995707,-87.64128,11,1,2,0,0
2559835,MOD PIZZA,41.91094876,-87.65315955,7,1,1,0,0
2458402,Earl's BBQ,41.96868864,-87.77811463,13,4,1,1,1
21999,TACO & BURRITOS PALACE,41.9456985,-87.6492916,8.5,2,2,0,0
2385098,DUNKIN DONUTS,41.89561531,-87.70670533,4.5,2,1,0,0
2688841,"CHICK-FIL-A,INC.",41.88527796,-87.62778288,3,1,1,0,0
2671528,TATAS TACOS,41.95326383,-87.751092,0.5,2,1,0,0
2215489,"MONTESSORI ACADEMY & ASSOC., INC.",41.69358029,-87.64227024,4,2,2,1,1
2671182,RPM EVENTS ON THE WATER,41.88796934,-87.63088634,0,1,1,0,0
2535459,ELLA'S CORNER,41.8778613,-87.65933207,6,1,1,0,0
2671183,RPM EVENTS ON THE WATER,41.88796934,-87.63088634,0,1,1,0,0
2379215,NANDO'S PERI-PERI,41.93288386,-87.64627175,3.333333333,3,2,0,0
2608171,SHAWARMA STOP,41.93617191,-87.65340849,7.5,4,2,0,0
2043260,THE DOCK AT MONTROSE BEACH,41.96390894,-87.63863625,8,3,2,0,0
2658446,HEXE COFFEE,41.93276905,-87.67901049,0,1,1,1,1
2215984,KIDS R FIRST LEARNING CENTER,41.7566817,-87.64434493,8,3,2,0,0
2215954,A-ZMALL WORLD CHILD DEVELOPMENT CENTER,41.84346389,-87.717055,4,2,1,2,1
2684288,4301 ALLSTULE BUFFET,41.8149936,-87.7237077,1.5,2,1,0,0
1617900,LAS TABLAS,41.95348584,-87.75073173,8,2,1,0,0
1870339,TACO BURRITO KING,41.90920757,-87.78920248,5,2,1,0,0
2264071,CELIS NUTRICION,41.77901426,-87.70734216,4,1,1,0,0
2261760,TANOSHII SUSHI MIKE'S,41.88452285,-87.64652058,8,1,1,0,0
2683676,ROOSEVELT UNIVERSITY COFFEE SHOP,41.87624813,-87.62441918,5,3,2,0,0
2671466,GO! GROCER,41.86400154,-87.62422573,0,2,2,0,0
1802424,CARNICERIA Y FRUTERIA LOS ALTOS,41.82077153,-87.69940685,7.666666667,3,2,0,0
1422721,TROPI CUBA,41.92249267,-87.70235877,14,2,1,0,0
2671463,GO! GROCER,41.86400154,-87.62422573,11,2,2,0,0
2270363,PASTEL !,41.80554686,-87.72366059,5,1,1,0,0
2313774,SHILAS RESTAURANT,41.95276148,-87.74744675,11,2,1,0,0
2551148,Giordano's of Lincoln Square,41.96156203,-87.6794522,0,1,1,0,0
2535057,PRIMOS PIZZA,41.87676981,-87.64796315,10,1,1,0,0
2684159,DISCO TACO,41.96147827,-87.66949202,4,1,1,1,1
2659134,STEPPING STONES LEARINING INSTITUTION INC,41.73822207,-87.7214019,8,2,1,0,0
2215658,LIVING WITNESS LEARNING DAY CARE,41.95690749,-87.75711973,5.5,2,1,0,0
2670818,CRACKED ON MILWAUKEE,41.9066299,-87.67137624,0,2,2,0,0
2584046,HOME RUN INN,41.78932932,-87.74164564,0,1,1,0,0
2320734,SAPORI,41.9315785,-87.64882494,2.333333333,3,1,0,0
2671180,RPM EVENTS ON THE WATER,41.88796934,-87.63088634,0,1,1,0,0
2584045,HOME RUN INN,41.78932932,-87.74164564,0,1,1,0,0
2463968,PRIME FISH,41.74810406,-87.64411513,6,2,1,0,0
2560593,DUNKIN DONUTS,42.00072012,-87.66065603,5.666666667,3,2,0,0
2653036,HEXE COFFEE,41.93276905,-87.67901049,4,1,1,1,1
2549292,BENNETT DAY SCHOOL,41.89102615,-87.65200459,2,1,1,0,0
2670817,CRACKED ON MILWAUKEE,41.9066299,-87.67137624,7.333333333,3,2,1,1
2476760,KARACHI CHAT HOUSE,41.99766158,-87.68750364,14.33333333,3,1,0,0
2653037,HEXE COFFEE,41.93276905,-87.67901049,0,1,1,0,0
2368808,BURGER KING,41.76620155,-87.72259366,5,1,1,1,1
2437591,LA MICHOACANA FAVORITA LLC,41.7793768,-87.72292751,7,1,1,0,0
3775,JACKYS HOT DOGS,41.79456097,-87.72305196,3,1,1,0,0
1382145,FRESH MARKET PLACE,41.92764768,-87.76626652,10.5,2,1,0,0
2677822,RANGOON BURMA GROCERY STORE,41.99722245,-87.6945993,3.5,2,2,0,0
2689035,REAL GOOD STUFF CO,41.92493472,-87.64783287,1.5,2,2,0,0
1801271,FINLEY MAHONY'S,41.94924955,-87.6482598,6,2,1,2,1
2671181,RPM EVENTS ON THE WATER,41.88796934,-87.63088634,0,1,1,0,0
2688993,ZAYN FOOD MART,41.76541045,-87.63819691,11,1,1,1,1
2683806,Nepalese & Indian Cuisine,41.92706664,-87.69732984,12,1,1,0,0
2079685,WEBSTER'S WINE BAR,41.9288491,-87.70681721,9.333333333,3,2,0,0
1445833,MCDONALDS,41.8096287,-87.60736974,8,2,2,0,0
2496218,HYATT PLACE,41.88264999,-87.63547347,6,2,1,0,0
2374705,FORBIDDEN ROOT,41.89611415,-87.67144255,7,2,2,2,1
2262538,ARAMARK-SOLDIER FIELD,41.86262829,-87.61503109,12,1,2,0,0
2202278,SUNNY'S BAR B QUE,41.75526283,-87.64430781,11,2,2,0,0
2368802,BURGER KING #10366,41.81884058,-87.72411293,2,1,1,0,0
2689016,ESTHER'S ICE CREAM,41.88743405,-87.68184949,1,1,1,0,0
2560978,FAMILY DOLLAR #32004,41.75100452,-87.62787737,5.8,5,1,0,0
2579339,KIDZ CREATIVE CORNER,41.95092894,-87.67634618,1,1,1,0,0
2664974,ROSELAND PIZZAS AND TACOS,41.68524937,-87.619387,4,1,1,0,0
2271372,BOMBON CAKE DESIGN,41.79073435,-87.72323768,5.5,2,2,0,0
2026344,SUBWAY,41.9081776,-87.74621519,2.5,2,1,1,1
2405784,LITTLE BUGS LEARNING CENTER INC,41.90828802,-87.72632247,4,1,1,0,0
36126,LAWN MAGIC LOUNGE,41.76977201,-87.72267947,9.5,2,2,0,0
2689123,"ARAMARK SERVICES, INC",41.87225871,-87.62609461,2,1,1,0,0
2688786,IDOF  Fresh Mediterranean,42.00179879,-87.66090125,1,2,2,0,0
2215775,ABC PRESCHOOL,41.94945558,-87.77679089,1,1,1,0,0
2517705,WINGSTOP,41.87448906,-87.6273653,2,1,1,0,0
2601821,REGGIES ON THE BEACH,41.7808039,-87.57461558,0,2,1,0,0
2677241,DOLLAR ISLAND,41.9310402,-87.77519907,3,1,1,0,0
1434,GROUCHO'S BAR & GRILL,41.74051514,-87.72147836,3.5,2,1,0,0
2601820,REGGIES ON THE BEACH,41.7808039,-87.57461558,2.5,2,1,1,1
2152231,SERENA  RESTAURANT,41.99765535,-87.6878405,11,2,1,1,1
2179700,CHIPOTLE,41.94169393,-87.68837933,1.5,2,1,0,0
2536010,L'PATRON,41.85045102,-87.65879786,1,1,1,1,1
1305316,HAN BAT RESTAURANT,41.96843449,-87.69716822,7.5,2,1,0,0
1969710,SWEETWATER,41.88637741,-87.62438167,13,1,1,1,1
2522334,JR'S RED HOTS,41.91746648,-87.68681624,13.5,2,2,0,0
26055,POPEYE FAMOUS FRIED CHICKEN,41.89566173,-87.70671074,3,1,1,0,0
15456,RACINE BAKERY INC,41.79383818,-87.77530511,6,2,1,0,0
2368736,BURGER KING,41.9957096,-87.71579472,2.5,2,1,1,1
2216075,,41.88069925,-87.63972503,0,1,1,0,0
2518015,BRICKHOUSE TAVERN,41.94842204,-87.65732464,8,3,2,0,0
2689216,BRASA ROJA EXPRESS,41.95403468,-87.71942863,1,1,1,0,0
2549860,IDOF FRESH MEDITERRANIAN,42.00179879,-87.66090125,5.75,4,1,1,1
2463442,EMERALD CITY COFFEE,41.95389641,-87.65467574,7,1,1,0,0
1618579,MAHONEY'S PUB & GRILL,41.89214682,-87.65793602,1,2,1,0,0
2549925,THE LITE,41.79533443,-87.58427242,4.5,2,1,0,0
2109816,HENRY'S,41.8901664,-87.62854579,0,1,1,0,0
14622,SOUTH LOOP CLUB INC,41.87305558,-87.62741781,3,2,1,0,0
26528,RAYMOND'S HAMBURGERS & TACOS,41.84878118,-87.67542918,10,1,1,0,0
2684536,SOUTH DEERING MART,41.70268583,-87.55974771,9,1,1,0,0
2060206,BENTO BOX,41.91773477,-87.68438613,9.75,4,1,0,0
2158281,5411 EMPANADAS,41.9339798,-87.64601179,5.666666667,3,1,1,1
55418,Silli  Kori,41.90304274,-87.67934669,8.5,2,1,1,1
2078719,REVOLUTION BREWING,41.92353246,-87.69813956,12,2,1,0,0
2602146,PAN ARTESANAL,41.92467025,-87.72044496,5.666666667,3,1,0,0
1578473,FANFARES CATERING,41.72215179,-87.60520404,11,1,1,0,0
1446680,COCO PAZZO,41.89007262,-87.63559786,7,2,1,0,0
2196553,AU BON PAIN,41.97634621,-87.69879442,11,1,1,0,0
52004,PICK ME UP CAFE,41.94382098,-87.65396259,8,1,1,0,0
2689015,ESTHER'S ICE CREAM,41.88743405,-87.68184949,0,1,1,0,0
1196269,STARBUCKS COFFEE #2565,41.87685514,-87.64154407,2,1,1,0,0
1986217,7-ELEVEN,41.94590506,-87.74690752,9,2,1,0,0
2492789,BIRRIERIA DE LA TORRE MEXICAN RESTAURANT,41.77061934,-87.72270419,5.5,2,1,1,1
2203561,GREAT CHINA HOUSE,41.85031569,-87.67593597,5,1,1,1,1
2177328,FOSTER MEDICAL PAVILION PHARMACY,41.97634621,-87.69879442,2,1,1,1,1
2004404,CHINA HO RESTAURANT,41.79901235,-87.72318127,5,1,1,0,0
2689135,JUICERX,41.89325719,-87.62234986,3,1,1,0,0
2578636,SPACE519,41.89853034,-87.62177741,1,1,1,0,0
2043260,THE DOCK AT MONTROSE BEACH,41.96390894,-87.63863625,8,3,2,0,0
2341067,TAQUERIA 5 DE MAYO,41.96119792,-87.68929407,3,2,2,0,0
2569626,KIMURA SUSHI,41.86943381,-87.66264704,9,1,1,0,0
1646198,THREE STARS FOOD MARKET,41.88590557,-87.7064122,6,1,1,1,1
2631857,EVA'S CLUB,41.91716843,-87.71714485,7.5,2,1,0,0
2677669,OPUS,41.87942967,-87.62527091,9,3,2,1,1
2683692,LOUIS A. WEISS MEMORIAL HOSPITAL,41.96685955,-87.64913504,0,2,1,0,0
1650064,CHUBBY WIENERS,41.96634736,-87.68898365,4,1,1,1,1
2476381,OAZAS,41.96836673,-87.70589094,4.25,4,2,0,0
2358986,MUSIC BOX THEATRE,41.94985726,-87.66394689,9.5,2,2,0,0
2215472,BUSY BUMBLE BEE ACADEMY DAYCARE,41.77709239,-87.60600378,3,2,2,0,0
1937785,BLUE ROOSTER EVENT CATERING,41.95460302,-87.67365219,4.5,2,2,0,0
1695816,VILLAGE PIZZA,41.89585612,-87.68664749,10,2,2,0,0
2615751,LET'S EAT THAI,41.85045102,-87.65879786,4.875,8,2,0,0
2665227,TINTO & TAPAS,41.93785943,-87.82625503,0,1,1,0,0
2683676,ROOSEVELT UNIVERSITY COFFEE SHOP,41.87624813,-87.62441918,5,3,2,0,0
2152750,CAFFE' OLIVA,41.8920636,-87.61253372,13,2,1,1,1
2522733,DURUM CAFE,41.88305289,-87.6446886,15,3,1,0,0
55355,RAJ DARBAR,41.93075191,-87.64909233,3.166666667,6,1,0,0
1621501,FIVE STAR BAR & GRILL,41.89624197,-87.66344068,1,2,1,0,0
2570412,BON VIVANT CAKES LLC,41.96805859,-87.71076359,6,1,1,0,0
1970076,MR. SUBMARINE,41.92505954,-87.6668408,9,2,1,0,0
2220008,DIPPIN' DOTS ICE CREAM,41.88743405,-87.68184949,2,1,1,0,0
2677672,OPUS,41.87942967,-87.62527091,0,2,2,0,0
81565,LA LUNA BAKERY,41.9240544,-87.75203277,2.5,2,1,0,0
2683693,LOUIS A. WEISS MEMORIAL HOSPITAL,41.96685955,-87.64913504,5,2,1,0,0
2630936,,41.76555262,-87.62682483,6,2,2,1,1
2684518,KONA ICE OF NILES,41.85045102,-87.65879786,3,1,2,0,0
53171,HIROMI'S ORIENTAL RESTAURANT,41.96823261,-87.71865106,4.333333333,3,1,0,0
2671113,CONVENE,41.88052759,-87.63562385,0,2,2,1,1
2496427,LUNA LLENA SPORTS GRILL,41.93856566,-87.75855584,7,3,2,2,2
1879269,EDDY' S FOOD MART,42.01916462,-87.66839729,8,1,1,0,0
2506445,RED SNAPPER,41.90203403,-87.76571211,10,1,1,0,0
2677671,OPUS,41.87942967,-87.62527091,0,2,2,1,1
3759896,ACERO JOVITA IDAR CHARTER SCHOOL,41.80106791,-87.70883469,2.666666667,3,2,0,0
2671117,CONVENE,41.88052759,-87.63562385,0,2,2,0,0
2665228,TINTO & TAPAS,41.93785943,-87.82625503,0,1,1,1,1
2589062,DUNKIN DONUTS,41.77784508,-87.76638144,1,2,2,0,0
2671111,CONVENE,41.88052759,-87.63562385,0,2,2,0,0
2671118,CONVENE,41.88052759,-87.63562385,0,2,2,0,0
1874389,BEST TACO & BURRITO JOINT,41.92438087,-87.72620077,12.5,2,2,2,2
1986439,EAT AND RUN NFP,41.73562916,-87.66684643,6,5,2,0,0
60765,CASA CENTRAL COMMUNITY SERVICE,41.90598597,-87.69680736,7,1,1,0,0
1000774,RECLAIMED BAR AND RESTAURANT,41.94834586,-87.68815549,2.5,2,1,1,1
2419138,NEW CITY SUPPORTIVE LIVING,41.80836402,-87.66603343,2,1,1,0,0
2646924,DUNKIN DONUTS,41.92527648,-87.65303527,2.5,2,1,0,0
1942299,SEE THRU CHINESE RESTAURANT,41.90202972,-87.76602279,4,1,1,0,0
1741003,TAQUERIA EL CHARO DE SAN FRANCISCO,41.70261923,-87.53430877,11,3,2,2,2
2446998,MARIANO'S,41.93733844,-87.64445647,6.75,4,1,0,0
2671110,CONVENE,41.88052759,-87.63562385,12,2,2,1,1
2595711,WINGSTOP RESTAURANT,41.94207713,-87.68839243,3.5,2,1,0,0
2215984,KIDS R FIRST LEARNING CENTER,41.7566817,-87.64434493,8,3,2,0,0
43697,HARVESTIME FOODS,41.96867023,-87.69516275,7,1,1,0,0
2626476,STARBUCK'S,41.88342264,-87.62802165,3,2,1,1,1
2451485,DESSERT CONCEPTS LLC,41.96817754,-87.74420787,3,2,1,2,1
2551920,MARISCOS LUIS-ITO,41.80768469,-87.72964243,6,2,2,2,1
1542,MELLOW YELLOW,41.79965621,-87.58873571,1,2,1,0,0
2647834,MORANDS LIQUORS,41.70218656,-87.68163354,8,1,1,0,0
1212,BRUNA'S CAFE,41.84757384,-87.68321584,5,1,1,0,0
2589262,BROTHER & SISTERS ALL DAY,41.89574547,-87.68030341,6,1,1,0,0
1772607,BIRRIERIA JALISCO,41.80851121,-87.68669535,4,1,1,0,0
2659350,YAKISOBA MISOYA,41.93402583,-87.64604914,7,2,1,0,0
2032955,ARAMI,41.89586195,-87.67335104,4.5,2,1,2,1
44712,HOLLYWOOD GRILL,41.91051964,-87.66774969,10,2,1,0,0
24686,DUNKIN DONUTS,41.96873073,-87.67267203,4,2,1,0,0
2569276,DEL CAMPO PIZZERIA,41.7452078,-87.70241338,13,2,1,0,0
2133974,VAN BUREN & ASHLAND AMOCO,41.87646093,-87.66670765,0,1,1,0,0
1909968,JEWEL FOOD STORE #3376,41.88891817,-87.64447797,7,1,1,0,0
1476654,CERMAK PRODUCE,41.95859672,-87.70830958,1.5,2,1,0,0
2578266,UNITED FOOD MART,41.87186697,-87.69589835,8,2,1,0,0
2677112,HOGAR CAFE,41.79358651,-87.69348088,4,1,1,0,0
2206671,FRIEDMAN PLACE,41.98220622,-87.69290712,0,1,1,0,0
5079,L & P FOODS,41.76602561,-87.62477633,4,1,1,1,1
2636596,HAROLD'S THE FRIED WING KING,41.96549905,-87.65824707,5,3,1,1,1
2464464,MAN-O-SALWA,41.9974656,-87.69870592,2.333333333,3,1,0,0
1403943,BLUE BIRD BOWL,41.73756102,-87.71916759,5.5,2,1,0,0
2588975,LAFIESTA,41.81629174,-87.70088978,9,2,1,0,0
28008,GIORDANO'S ON SHERIDAN,42.00667979,-87.6614182,3.5,2,1,0,0
2379193,EL CUBANITO,41.92793173,-87.72672317,1.5,2,1,0,0
2313937,D&D PLACE RESTAURANT,41.74160421,-87.70232034,7.5,2,1,0,0
1738519,GLENN'S DINER,41.96161213,-87.67543735,13,2,1,0,0
1270916,"S & H CONVENIENT STORE,INC.",41.74990987,-87.70696835,9,2,1,0,0
2427620,EL MIRADOR RESTAURANT,41.93145721,-87.76052657,3.5,2,1,0,0
2659351,YAKISOBA MISOYA,41.93402583,-87.64604914,0,2,1,0,0
2069042,LA LENA,41.91005175,-87.72131578,11.4,5,1,0,0
70743,GATEWAY FOUNDATION-KEDZIE CENT,41.91219344,-87.70695426,5.5,2,2,2,1
2391792,CITY CAFE RESTAURANT,41.94014439,-87.72735832,5,2,1,0,0
22936,ORANGE ON ROSCOE,41.94310223,-87.67892832,2,2,1,0,0
1336958,CHICAGO'S PIZZA,41.96137293,-87.67682523,6,3,1,0,0
2664787,FOODA,41.89603605,-87.62413103,1.666666667,3,1,0,0
2215489,"MONTESSORI ACADEMY & ASSOC., INC.",41.69358029,-87.64227024,4,2,2,0,0
2688844,SOUTH CHINA KITCHEN II,41.75081791,-87.6830146,5,1,1,0,0
2658977,POP-EE'S MINI MART,41.70013279,-87.61268791,5,1,1,0,0
2501370,THE HOAGIE PLACE INC,41.74561896,-87.64374768,4,1,1,0,0
1959000,J J MINI STORE,41.94222417,-87.727132,8,1,1,0,0
1681213,LA ENCANTADA RESTAURANT,41.90992353,-87.71344146,9.666666667,3,1,1,1
4851,PAULINA SUPER MARKET INC,42.02008731,-87.67323456,9,1,1,0,0
2068861,SEADOG,41.90348137,-87.66510269,2,2,1,0,0
1379458,LAS ISLAS MARIAS,41.79496271,-87.72306328,9,1,1,0,0
14622,SOUTH LOOP CLUB INC,41.87305558,-87.62741781,3,2,1,0,0
2404371,LA JOSIE,41.88451686,-87.64739068,14,2,2,0,0
2615766,BUONA,41.8832528,-87.64764601,8,1,2,0,0
2688987,HALAL PERI PERI CHICKEN,41.99784774,-87.68948696,5,1,1,0,0
2397526,JJ MAXWELL STREET,41.72223201,-87.62520901,5,2,2,2,1
2245840,RICO FRESH MARKET,41.91740411,-87.7156725,12.33333333,3,2,0,0
2595327,MR BEEF ON HARLEM,41.95127467,-87.80706638,2,1,1,0,0
2141879,Damenzo's,41.87185371,-87.68603685,2,2,1,0,0
1894000,YOLK,41.86862204,-87.62426074,3,1,1,0,0
30212,POPEYE'S CHICKEN,41.93878413,-87.75863714,12.5,2,2,0,0
2641468,GREAT WALL CHINESE FOOD,42.00499183,-87.66101659,7.5,2,1,1,1
2632018,ZAIQA RESTAURANT,41.99767447,-87.68675631,14,2,2,2,2
1932299,AFC SUSHI@JEWEL-OSCO #3376,41.88891817,-87.64447797,1,1,1,0,0
3760050,ACERO RUFINO TAMAYO,41.79993702,-87.69382513,2,1,1,0,0
2569687,DUNKIN DONUTS,41.90579384,-87.72625114,2,1,1,0,0
2319777,MOMOTARO,41.88575837,-87.64841059,4,1,2,0,0
1647252,FRIEDMAN PLACE,41.98220622,-87.69290712,7,1,1,0,0
12380,CHICAGO JOE'S,41.9541631,-87.68573203,4.5,2,2,0,0
15630,MR SUBMARINE,41.97628834,-87.69250645,19,1,1,0,0
2363853,RESTAURANTE AMATEPEC ESTADO DE MEXICO,41.8007213,-87.70307308,3,1,1,0,0
2163786,ROLLS N BOWLS EXPRESS,41.96588385,-87.68660116,6,2,1,0,0
86985,SUBWAY SANDWICHES,41.96152382,-87.66603986,5,2,1,0,0
2215943,WEST AUSTIN DEVELOPMENT CENTER,41.88056364,-87.74861367,5,1,1,0,0
2506375,BURRITOS AIDA/TU BOTANA,41.78613073,-87.70386322,15,1,1,0,0
2437425,GALATA,41.86468822,-87.64574327,11,1,1,0,0
1139498,CHICAGO SWEET CONNECTION BAKERY,41.98224165,-87.78079861,8,1,1,0,0
1122732,BEL-AMI RESTAURANT,41.98205255,-87.69354121,10,1,1,0,0
2542212,SOUTH LOOP MARKET,41.93603915,-87.65382872,6.5,2,1,1,1
2391128,HANDCUT FOODS,41.9141105,-87.66325471,5,1,1,0,0
2601035,FACEBOOK,41.8855345,-87.63667609,5,2,1,0,0
2379419,TEQUILA CJ RESTAURANT,41.7969,-87.75543002,11.66666667,6,1,0,0
2314545,YOLK,41.93275742,-87.64148773,7.5,2,2,2,1
37209,LOS PANCHO'S RESTAURANT,41.77849967,-87.72673559,9.5,2,1,0,0
2631601,FANCY PLANTS CAFE,41.93903281,-87.64494165,6.5,2,1,0,0
2437868,LA ANTIGUA HACIENDA,41.85000937,-87.72457104,4.333333333,3,1,0,0
2060138,NEW STONY SUBMARINE,41.74116698,-87.58589024,4,1,1,0,0
2002814,Mc DONALDS,41.73986052,-87.7214563,2.25,4,1,1,1
2452276,RUIN DAILY,41.87709414,-87.64265497,7.5,2,1,0,0
1248488,A. J. HUDSON'S PUBLIC HOUSE,41.95073517,-87.6688129,5.25,4,1,0,0
2185079,NAF NAF GRILL,41.8830946,-87.63563266,8.25,4,1,0,0
1974239,THE WATERFRONT CAFE,41.99520222,-87.65539831,1,2,1,0,0
2412015,LITTLE SPROUTS DAYCARE INCORPORATED,41.7647865,-87.68461594,1,1,1,1,1
2600878,7-ELEVEN,41.94711654,-87.65545987,4,1,1,0,0
2550506,DAVE'S FOOD MART,41.75018331,-87.66822885,4,1,1,1,1
2601770,ROYAL FLAT CARIBBEAN JERK CUISINE,41.76638575,-87.57248701,11,1,1,0,0
22676,HALF SHELL,41.93287909,-87.64650055,4,2,2,0,0
2314597,FERMIN'S POULTRY INC,41.78498088,-87.7230814,4,3,2,0,0
2294414,Stans Donuts,41.9099952,-87.67759909,7,1,1,1,1
2215672,PILL HILL DEVELOPMENT CENTER,41.73494437,-87.58574727,3,1,1,0,0
1475038,PAN BAGUETTE BAKERY,41.74143279,-87.72150847,8,2,1,0,0
2442794,MI TIERRA SOUTH RESTAURANT,41.84545141,-87.70521429,7.5,4,1,0,0
2341662,CARNITAS LA ESQUINITA,41.95395117,-87.71398211,9,1,1,0,0
2079264,"AMY BECK CAKE DESIGN, LLC",41.89338043,-87.65758774,1,1,1,0,0
2207939,CONTINENTAL CARE CENTER,41.97875375,-87.68940909,8,1,1,0,0
2033242,WRIGLEY VIEW ROOFTOP,41.94912042,-87.65636121,8,1,1,0,0
2684875,RETRO FITNESS,41.87798781,-87.6244598,11,1,2,0,0
2386048,CAFE ROSA,41.79613355,-87.76038586,9.25,4,2,0,0
2177832,LE PIANO,42.00881369,-87.66635392,12.33333333,3,2,0,0
2088536,LE NOCTURNE,41.96935748,-87.65982657,6.666666667,3,1,0,0
80690,RESTAURANT & POZOLERIA SAN JUAN,41.9088169,-87.72633397,11,1,1,1,1
1817105,SUBWAY,41.93168227,-87.74356503,8,1,1,0,0
2432280,PAPA SANTIAGOS PIZZERIA,41.80773959,-87.72532519,5,1,1,0,0
2678083,MIKKEYS 47 EXPRESS LLC,41.80931768,-87.61371444,10.66666667,3,2,0,0
69608,CERMAK PRODUCE NO.4,41.91013224,-87.69460039,16.5,2,2,0,0
52887,DON'S HAMBURGERS,41.85652167,-87.68560925,6,1,1,0,0
2216107,HEGEWISCH/EAST SIDE CHILD DEVELOPMENT,41.65251141,-87.54606579,3,1,1,0,0
2423912,GHAREEB NAWAZ RESTAURANT,41.99798375,-87.68142045,8.2,5,2,0,0
2146319,TWO,41.89120657,-87.65587219,1,2,1,0,0
2215855,SHINING STAR CHILD DEVELOPMENT INSTITUTE OF THE ARTS,41.75142185,-87.60298707,2,1,1,1,1
1985223,KINGS  GYROS #2,41.97547237,-87.76738848,17,1,1,1,1
3846027,ENGLEWOOD STEM H.S.,41.76973341,-87.63711641,3,1,1,0,0
2391797,ROSDED RESTAURANT,41.96682443,-87.68789284,15,1,1,0,0
1477822,APPLE FOOD MART,41.88023654,-87.75722039,8.5,2,1,0,0
1870339,TACO BURRITO KING,41.90920757,-87.78920248,5,2,2,0,0
2334704,BAR COCINA,41.93450054,-87.65377549,7.333333333,3,1,0,0
1305316,HAN BAT RESTAURANT,41.96843449,-87.69716822,7.5,2,2,0,0
2501368,HACHI SUSHI IN PETES MARKET,41.80804727,-87.70411882,4,1,1,0,0
25772,COCULA RESTAURANT,41.73416431,-87.55121062,7.75,4,1,0,0
2659350,YAKISOBA MISOYA,41.93402583,-87.64604914,7,2,2,0,0
25493,ALLEY DOGS,41.94863688,-87.68845751,5,1,1,0,0
2428384,GREEN STREET LOCAL,41.87950077,-87.64860812,4,1,1,1,1
2412171,OUT ON FAITH INFANTS & TODDLERS,41.99800692,-87.66728833,0,1,1,0,0
2600678,MCDONALD'S,41.86651389,-87.7057336,2,2,1,0,0
1650274,JOY YEE NOODLE,41.86441075,-87.64669154,10,1,1,0,0
2463968,PRIME FISH,41.74810406,-87.64411513,6,2,2,0,0
2659351,YAKISOBA MISOYA,41.93402583,-87.64604914,0,2,2,0,0
2308185,SMAKOSZ RESTAURANT,41.96766365,-87.76825902,4,3,1,0,0
2088929,YEMEN RESTAURANT,41.96766784,-87.74018351,14,2,1,0,0
2215730,THE CHILDREN'S PLACE ASSN,41.91392525,-87.70212765,9,2,1,0,0
404,CELTIC CROWN,41.95953928,-87.6884838,9.5,2,1,1,1
2652969,YEMEN RESTAURANT,41.96766784,-87.74018351,4.333333333,3,2,0,0
1542,MELLOW YELLOW,41.79965621,-87.58873571,1,2,2,0,0
2684170,Babas Halal,41.75018934,-87.67298584,7.5,2,1,0,0
2446154,URBANBELLY WICKER PARK,41.90942674,-87.67758328,8.5,2,1,0,0
58084,MR GREEK GYROS,41.8781024,-87.64739071,8.5,2,1,0,0
2658471,Printers Row Wine Shop,41.87296972,-87.62900755,3,2,1,0,0
2684617,WONDER CHOP,41.92500431,-87.68841336,8,1,1,0,0
2355382,ESTATE,41.9034342,-87.65808665,3,2,1,0,0
2652417,CHICAGO UPTOWN GALLERY & CAFE,41.97365533,-87.65508455,6,2,1,2,2
1382145,FRESH MARKET PLACE,41.92764768,-87.76626652,10.5,2,2,0,0
2670235,PHILZ COFFEE,41.7994143,-87.59067572,1.333333333,3,1,0,0
2304660,LITTLE MARVELS EARLY CHILDHOOD SCHOOL,41.93718482,-87.66497655,1.5,2,1,0,0
1617900,LAS TABLAS,41.95348584,-87.75073173,8,2,2,0,0
2671483,CITY LINE CAFE,41.98109378,-87.84407563,0,2,1,0,0
2379398,KITCHFIX,41.89081448,-87.6708259,5.5,2,1,1,1
2215954,A-ZMALL WORLD CHILD DEVELOPMENT CENTER,41.84346389,-87.717055,4,2,2,0,0
2205135,ST. PAUL'S HOUSE AND HEALTHCARE CENTER,41.950415,-87.69828662,1,1,1,0,0
1591573,JET'S PUBLIC HOUSE,41.99337576,-87.78427522,13,1,1,0,0
25051,WRIGLEYVILLE DOG,41.94989452,-87.65851084,15,1,1,0,0
2215474,NEW PISGAH DAY CARE,41.74591662,-87.65376179,4,1,1,0,0
1394,JEWEL FOOD STORE,41.98218988,-87.66865163,6,4,1,0,0
2158281,5411 EMPANADAS,41.9339798,-87.64601179,5.666666667,3,2,1,1
2664128,THE LEARNING PLACE,41.75852367,-87.61480539,9.5,2,2,0,0
2659232,El Patron II,41.85164289,-87.70640811,0.5,2,1,0,0
1986407,MCDONALD'S,41.99785644,-87.67642503,0.5,2,1,0,0
2304630,LAKEVIEW BASEBALL CLUB,41.94823021,-87.65421241,8,1,1,0,0
1330101,GRAND CITGO/ MR. SUB / DUNKIN DONUTS,41.89086776,-87.66697976,7,1,1,0,0
2313774,SHILAS RESTAURANT,41.95276148,-87.74744675,11,2,2,0,0
2017995,Subway Sandwiches,41.87805084,-87.64765376,2.25,4,1,0,0
2616196,SIBLINGS SOUL FOOD,41.74589127,-87.66317832,9.6,5,1,0,0
2114079,ADA STREET-DMK,41.91256808,-87.66216725,3.5,2,1,0,0
2589550,SDG DUBU SO GONG DONG TOFU & BBQ,41.87787174,-87.64450946,9,1,1,0,0
2069042,LA LENA,41.91005175,-87.72131578,11.4,5,2,0,0
13994,ALDI FOODS #91,41.88065941,-87.72219367,2.5,2,1,0,0
2341038,STAR LOUNGE COFFEE BAR,41.89559836,-87.69016095,4,2,1,0,0
2210898,FOSTER HEALTH & REHABILITATION CENTER,41.97591599,-87.70055645,5,1,1,0,0
2609157,BEATNIK,41.89617941,-87.66752545,2.666666667,3,1,0,0
2560593,DUNKIN DONUTS,42.00072012,-87.66065603,5.666666667,3,2,0,0
71334,Crowne Plaza Chicago Metro,41.88167495,-87.64697413,9.5,2,1,0,0
1422721,TROPI CUBA,41.92249267,-87.70235877,14,2,2,0,0
1243125,PETE'S FRESH MARKET,41.80804727,-87.70411882,7,1,1,0,0
2688921,DOLLOP,41.88453096,-87.62460204,0.5,2,1,0,0
2589051,IZAKAYA YUME,41.87787174,-87.64450946,10,1,1,0,0
2684644,BONNIE'S FOOD MART,41.8552788,-87.65327979,5.5,2,1,0,0
2589935,LA CHAPARRITA,41.81013028,-87.69778536,3,2,1,0,0
2641666,ALBANY PLACE BAR & GRILL,41.96392783,-87.72776333,0,3,1,0,0
2608975,MAMA LEE'S GOURMET POPCORN,41.75466012,-87.74138476,5,1,1,1,1
2205617,SWEDISH COVENANT HOSPITAL,41.97533414,-87.69875687,0,2,1,0,0
2078719,REVOLUTION BREWING,41.92353246,-87.69813956,12,2,2,0,0
2684644,BONNIE'S FOOD MART,41.8552788,-87.65327979,5.5,2,2,0,0
2578374,TERIYAKI BOWL,41.8839051,-87.70605925,3,2,2,0,0
2684586,BABA'S VILLAGE,41.88458627,-87.63101045,4,2,1,0,0
2501098,MI TOCAYA,41.92857498,-87.69757835,15.5,2,1,0,0
2432435,KIDS + COMPANY,41.9143422,-87.63373572,0,2,1,0,0
2626697,"SUNRISE BREAKFAST & LUNCH RESTAURANT, INC.",41.69914649,-87.72051218,3.666666667,3,1,2,2
2641665,ALBANY PLACE BAR & GRILL,41.96392783,-87.72776333,7.5,4,1,0,0
2405576,MONTESSORI GIFTED PREP LLC.,41.96850906,-87.68418275,2,1,1,0,0
1332616,CAPTAIN HOOKS/FIREHOUSE STEAK AND LEMONADE,41.86518876,-87.66646924,13,1,1,1,1
2523663,LIQUOR BOX,41.89869627,-87.63710466,0,1,1,1,1
2368736,BURGER KING,41.9957096,-87.71579472,2.5,2,2,0,0
2438130,TAQUERIA LA ESTRELLA,41.96802836,-87.7610597,9,2,1,0,0
1986217,7-ELEVEN,41.94590506,-87.74690752,9,2,2,0,0
2496218,HYATT PLACE,41.88264999,-87.63547347,6,2,1,2,1
2042631,BIG DELICIOUS PLANET,41.88917016,-87.67456035,12,2,1,0,0
2488459,AVENIDA DEL SABOR,41.93109487,-87.77134438,15,1,2,0,0
1192905,JEWEL FOOD STORE #3344,41.86625418,-87.66652414,5,2,1,1,1
23243,SWEDISH COVENANT HOSPITAL,41.97533414,-87.69875687,5.5,2,1,0,0
2608553,LEARN CHARTER SCHOOL,41.86725283,-87.71071543,1,1,1,0,0
74790,DUNKIN DONUTS / BASKIN ROBBINS,41.96811179,-87.72986788,2.666666667,3,1,0,0
2060960,CARNICERIA GUANAJUATO #3,41.93856972,-87.69794595,5,1,1,0,0
2156798,JAIYEN II,41.93937772,-87.6976759,8,2,1,0,0
2683419,STORM ICE CREAM,41.89557001,-87.71637707,3,1,1,0,0
7813,NICKY'S,41.78797636,-87.70325124,8.5,2,1,0,0
2060206,BENTO BOX,41.91773477,-87.68438613,9.75,4,2,0,0
2560978,FAMILY DOLLAR #32004,41.75100452,-87.62787737,5.8,5,2,0,0
2451427,CERMAK FRESH MARKET,41.93189772,-87.72710503,9.2,5,1,0,0
2412676,LADY DI'S BAKERY,41.75327857,-87.73189421,14,1,1,0,0
2506210,FRIENDS SUSHI ON STATE,41.89692402,-87.62835252,5.666666667,3,1,0,0
2432436,KIDS + COMPANY,41.9143422,-87.63373572,2.5,2,1,0,0
2183768,STEVOS GRILL,41.93958169,-87.68666228,1.5,2,1,0,0
2398940,PASTES Y EMPANADAS GOLDEN TUZO,41.93136092,-87.76822806,5,2,1,0,0
12280,EAST OF THE RYAN,41.7514313,-87.60211212,12.25,4,1,0,0
2179700,CHIPOTLE,41.94169393,-87.68837933,1.5,2,1,0,0
2627467,ROEBUCK PIZZA,41.93930968,-87.64422837,11,1,1,0,0
2626982,J & J FISH & CHICKEN,41.89561531,-87.70670533,1.5,2,1,0,0
1909523,MANCHU WOK (T1 C18 FOOD COURT),42.0085364,-87.91442844,4,2,1,2,1
53171,HIROMI'S ORIENTAL RESTAURANT,41.96823261,-87.71865106,4.333333333,3,2,0,0
2595711,WINGSTOP RESTAURANT,41.94207713,-87.68839243,3.5,2,2,0,0
55418,Silli  Kori,41.90304274,-87.67934669,8.5,2,2,2,1
1245673,CAFE MIMOZA,41.96845247,-87.69487468,6.666666667,3,1,0,0
2529904,PACO'S TACOS,41.81512378,-87.70233076,10,1,1,0,0
2536639,NOAH'S ARK CHRISTIAN DAYCARE,41.69474039,-87.62063554,2.5,2,1,0,0
2432635,HO HO CHOP SUEY,41.75032239,-87.64418241,3,1,1,0,0
81565,LA LUNA BAKERY,41.9240544,-87.75203277,2.5,2,2,0,0
2385468,THE KIDS' TABLE,41.93388147,-87.6607731,10,1,1,0,0
2609714,KIM'S HOME COOKING,41.96933589,-87.70835645,11,1,1,0,0
2492789,BIRRIERIA DE LA TORRE MEXICAN RESTAURANT,41.77061934,-87.72270419,5.5,2,2,0,0
2622726,LAO SZE CHUAN,41.96995886,-87.65984318,3.333333333,3,1,0,0
2683358,RADLER LOGAN SQUARE,41.92448256,-87.69969287,0,1,2,1,1
2621255,NEMA CHICAGO,41.86739788,-87.62270051,0,1,2,0,0
2241077,"POSITIVE ATTITUDES WORKING, INC.",41.89453266,-87.77497649,0,1,1,0,0
66392,FRED & JACK'S EL GRAN BURRITO,41.75621011,-87.63134494,2,1,1,0,0
2647111,Cozy Corner Restaurant and Pancake House,41.97983627,-87.80712742,0,1,1,0,0
25772,COCULA RESTAURANT,41.73416431,-87.55121062,7.75,4,2,0,0
2279559,REAL KITCHEN,41.961521,-87.66626754,8,1,1,1,1
2320557,TRYZUB RESTAURANT,41.89571504,-87.68206793,4.5,2,1,0,0
1742571,MUHAMMAD UNIVERSITY OF ISLAM,41.76087559,-87.58563944,2,1,1,0,0
2565091,GROCERY & MEAT MARKET,41.86659161,-87.69828716,3,1,1,0,0
2549860,IDOF FRESH MEDITERRANIAN,42.00179879,-87.66090125,5.75,4,2,0,0
2665308,METROPOLITAN BREWING,41.93739495,-87.69273769,0,1,1,0,0
2627468,ROEBUCK PIZZA,41.93930968,-87.64422837,0,1,1,0,0
1847484,CENTER FOR SENIORS,41.97824139,-87.70889,6,1,1,0,0
2099079,EINSTEIN BROS. BAGELS,41.89743861,-87.62564027,7,2,1,0,0
2522733,DURUM CAFE,41.88305289,-87.6446886,15,3,2,0,0
1479249,ROCKWELL'S NEIGHBORHOOD GRILL,41.96580613,-87.69386749,20,2,1,0,0
2627466,ROEBUCK PIZZA,41.93930968,-87.64422837,0,1,1,0,0
2452010,EL TACONAZO  LA FIESTA INC.,41.9294953,-87.7663303,15,1,1,0,0
1742999,DUNKIN DONUTS / BASKIN ROBINS,41.88559227,-87.64200029,8,1,1,0,0
2615751,LET'S EAT THAI,41.85045102,-87.65879786,4.875,8,2,0,0
2684016,CANTEEN,41.66611299,-87.55900308,2.333333333,3,1,0,0
2626476,STARBUCK'S,41.88342264,-87.62802165,3,2,2,2,1
2683828,ASHAR MART,41.96837295,-87.70502516,3.666666667,3,1,0,0
2437219,FALAFEL DREAM,41.95225489,-87.80739691,2,2,1,1,1
55355,RAJ DARBAR,41.93075191,-87.64909233,3.166666667,6,2,0,0
1677434,NUMBER 1 CHOP SUEY,41.76113827,-87.58634581,14,1,1,0,0
2578015,HOTEL ZACHARY,41.9479656,-87.65729854,12,1,1,1,1
2137182,PEEPLES TACO'S,41.89483794,-87.77408919,8,1,1,0,0
1909539,CAFE ZOOTS (T1 C18 FOODCOURT),42.0085364,-87.91442844,4,2,1,2,1
1444674,Hops And Barley,41.96036019,-87.75406627,8,2,1,0,0
1947810,DUNKIN DONUTS,41.8830406,-87.68633875,3,1,1,1,1
37212,GALLERIA MARCHETTI,41.89324923,-87.64879206,4,1,1,0,0
2621254,NEMA CHICAGO,41.86739788,-87.62270051,5,1,2,0,0
2405544,KREATIVE KIDZ ACADEMY III,41.75108435,-87.62372877,2,3,1,0,0
1716955,JIMMY JOHN'S- STATE,41.87248659,-87.62739892,6,2,1,0,0
2609157,BEATNIK,41.89617941,-87.66752545,2.666666667,3,2,0,0
1909532,SALAD WORKS (T1 C18 FOOD COURT),42.0085364,-87.91442844,3.333333333,3,1,0,0
2517695,Metropolitan Club,41.87856015,-87.63652387,9,1,1,0,0
2261729,LOST LAKE & THANK YOU CHINESE,41.93213749,-87.70712865,5,3,1,0,0
1121856,POPEYE'S CHICKEN,41.81262899,-87.7063942,3.5,2,1,1,1
2677551,URBAN PANTRY,41.87278061,-87.63077151,0,1,1,0,0
1618656,HAPPY FOODS,41.99786001,-87.7634458,10,1,1,0,0
2652417,CHICAGO UPTOWN GALLERY & CAFE,41.97365533,-87.65508455,6,2,2,0,0
3933,PAMPANGA'S CUISINE FILIPINO RESTAURANT,41.99753276,-87.76690074,9.5,2,2,0,0
2683359,RADLER LOGAN SQUARE,41.92448256,-87.69969287,20,1,2,0,0
2646685,LOST LAKES,41.93213749,-87.70712865,0,1,1,0,0
2677548,URBAN PANTRY,41.87278061,-87.63077151,4,1,1,0,0
1739898,C & P FRIED RICE 2,41.87312341,-87.75495571,7,1,1,0,0
28488,WHITE CASTLE #26,41.77854419,-87.74189535,4,1,1,0,0
2637010,SHARKS FISH AND CHICKEN,41.87621067,-87.6963055,9.5,2,1,0,0
1649665,EL RANCHITO FOOD MARKET,41.76423659,-87.72000987,13,2,1,0,0
2349549,HI-VIBE,41.8892816,-87.63349105,0,1,1,0,0
2215622,NEAR THE PIER DEVELOPMENT CNTR,41.89234927,-87.61455717,6,1,1,0,0
1403943,BLUE BIRD BOWL,41.73756102,-87.71916759,5.5,2,2,0,0
2565135,D ARCO'S PIZZA,41.77899474,-87.69421036,3,6,1,0,0
2391792,CITY CAFE RESTAURANT,41.94014439,-87.72735832,5,2,2,0,0
1192905,JEWEL FOOD STORE #3344,41.86625418,-87.66652414,5,2,1,0,0
71334,Crowne Plaza Chicago Metro,41.88167495,-87.64697413,9.5,2,2,0,0
2204504,SQUIRE'S SHELTERED CARE HOME,41.92879376,-87.69737828,6.5,2,1,0,0
1841004,7-ELEVEN,41.97626545,-87.83676599,5,1,1,0,0
23243,SWEDISH COVENANT HOSPITAL,41.97533414,-87.69875687,5.5,2,2,0,0
2069923,BIG BRICKS,41.95130146,-87.67693521,9.5,2,1,0,0
1681213,LA ENCANTADA RESTAURANT,41.90992353,-87.71344146,9.666666667,3,2,0,0
2684016,CANTEEN,41.66611299,-87.55900308,2.333333333,3,2,0,0
2042631,BIG DELICIOUS PLANET,41.88917016,-87.67456035,12,2,2,0,0
2477101,TAIPEI CAFE,41.84504471,-87.64629711,4.5,4,1,0,0
2299419,BANQUETES LA GLORIA,41.81845057,-87.70423225,2,1,1,0,0
2641421,BP,41.87454614,-87.73540433,1.666666667,3,1,0,0
2658971,MEATHEADS,41.9414762,-87.68837416,0.5,4,1,0,0
2152750,CAFFE' OLIVA,41.8920636,-87.61253372,13,2,2,0,0
2487453,SOULE,41.895821,-87.67588999,10.5,2,1,1,1
2069345,LOU MALNATI'S PIZZERIA,41.90239382,-87.62846892,3,3,1,0,0
1335894,EXCELSIOR GARDEN,41.96931524,-87.76182026,10,1,1,1,1
2683386,,41.80282562,-87.66466843,3,2,1,0,0
2658340,FOODA -UIC,41.87438864,-87.65695889,3,2,1,0,0
2142688,DOLLOP COFFEE AND TEA,41.95794015,-87.64965206,11,1,1,1,1
2469885,L' PATRON,41.92443853,-87.7214259,9,2,1,0,0
2451427,CERMAK FRESH MARKET,41.93189772,-87.72710503,9.2,5,2,0,0
22936,ORANGE ON ROSCOE,41.94310223,-87.67892832,2,2,2,0,0
1331472,THE RIVER OF CHICAGO,41.93475136,-87.65378373,5,2,1,0,0
2079754,SUPER GIFT & GROCERIES,41.99765846,-87.68767204,7,1,1,1,1
2114300,SWEDISH COVENANT HOSPITAL/CAFETERIA,41.97533414,-87.69875687,4,1,1,0,0
2569276,DEL CAMPO PIZZERIA,41.7452078,-87.70241338,13,2,2,2,2
2683701,HANABUSA CAFE,41.88196533,-87.62679322,2.5,4,2,0,0
2158450,Las Delicias De Puerto Rico,41.91681503,-87.7470576,5,3,1,0,0
2522733,LAVASH MEDITERRANEAN GRILL,41.88305289,-87.6446886,15,3,2,2,2
1330095,"HALSTED SHELL, DUNKIN DONUTS, MR SUB",41.71580477,-87.64320825,7.333333333,3,1,0,0
2188943,SUPERMERCADO LA GLORIA,41.81845057,-87.70423225,5,1,1,0,0
2684521,CHENGDU AROMA,41.94073017,-87.65113415,10,1,1,0,0
2589876,BUREAU BAR AND RESTAURANT,41.86490457,-87.64598128,6,4,1,0,0
2152231,SERENA  RESTAURANT,41.99765535,-87.6878405,11,2,2,0,0
2602233,THE PLAY PIN,41.88170868,-87.74498504,3,1,1,0,0
2363482,"NATURAL FOOD CATERING, CORP.",41.94457214,-87.6537129,5,2,1,0,0
2205617,SWEDISH COVENANT HOSPITAL,41.97533414,-87.69875687,0,2,2,0,0
2616365,NOAH'S ARK CHRISTIAN DAYCARE INC.,41.70074439,-87.64278839,4.666666667,3,1,0,0
1121856,POPEYE'S CHICKEN,41.81262899,-87.7063942,3.5,2,1,0,0
2583584,PI-HI CAFE,41.94608077,-87.68809394,7,1,1,0,0
2583290,MB ICE ARENA,41.87743205,-87.67176794,2,1,1,0,0
2379193,EL CUBANITO,41.92793173,-87.72672317,1.5,2,2,0,0
1902989,PUNTA CANA RESTAURANT INC.,41.92104505,-87.71214152,14,3,2,0,0
2138152,BURRITO GRANDE PEREZ,41.800857,-87.72959311,8,1,1,0,0
2304660,LITTLE MARVELS EARLY CHILDHOOD SCHOOL,41.93718482,-87.66497655,1.5,2,2,0,0
2578266,UNITED FOOD MART,41.87186697,-87.69589835,8,2,2,2,1
2283226,TARGET,41.90376961,-87.64336894,0.5,2,1,0,0
2549059,MANSUETO HIGH SCHOOL,,,3,1,1,0,0
2575236,BONCI,41.91018019,-87.67759242,6,1,1,0,0
81721,MCDONALD'S #490,41.7055203,-87.70145804,9,1,1,0,0
2677267,HIGH IMPACT FIT CLUB,41.77394236,-87.72278658,0.5,2,1,1,1
2215937,Kids in Harmony Day School,41.9595268,-87.7536947,5,1,1,0,0
2368671,7-ELEVEN,41.99439639,-87.80239444,5.666666667,3,2,0,0
2683532,AY CARBON POLLO GRILL,41.79875026,-87.72346641,6.333333333,3,1,0,0
2334484,COLD STONE CREAMERY,41.8649599,-87.64699992,8,1,1,0,0
2522196,HALF ACRE BEER COMPANY,41.97974794,-87.68153895,6,1,1,0,0
1963537,"LITTLE CAESAR ENTERPRISES, INC.",41.74783932,-87.74115714,11,1,1,0,0
14709,REGGIO'S PIZZA III,41.7363802,-87.62769923,5.666666667,3,1,0,0
2600668,LILY'S KWIK STOP,41.88086436,-87.70599745,9,1,1,0,0
2320557,TRYZUB RESTAURANT,41.89571504,-87.68206793,4.5,2,2,0,0
1444674,Hops And Barley,41.96036019,-87.75406627,8,2,2,0,0
2684130,WIN SING SUPERMARKET,41.97117118,-87.65958097,7,1,1,0,0
1797826,THE KIDS' TABLE,41.91022606,-87.68622585,10.5,2,1,0,0
2589876,BUREAU BAR AND RESTAURANT,41.86490457,-87.64598128,6,4,2,0,0
2405544,KREATIVE KIDZ ACADEMY III,41.75108435,-87.62372877,2,3,2,0,0
2506267,TAQUERIA EL PLAN,41.80120185,-87.68796644,8,1,1,0,0
2215840,CONCORDIA PLACE,41.95206569,-87.67976129,2,1,1,0,0
1490824,GUERREROS PIZZA,41.85382873,-87.6956564,6,2,1,0,0
2204282,WOODBRIDGE NURSING PAVILION LT,41.92241897,-87.70729241,11.5,2,1,1,1
1330095,"HALSTED SHELL, DUNKIN DONUTS, MR SUB",41.71580477,-87.64320825,7.333333333,3,2,0,0
2411779,JIMMY JOHN'S,41.87677249,-87.64778829,4,1,1,0,0
1248488,A. J. HUDSON'S PUBLIC HOUSE,41.95073517,-87.6688129,5.25,4,2,0,0
2658639,SENOR PAN CAFE,41.93132565,-87.75383505,4.25,4,1,0,0
2088536,LE NOCTURNE,41.96935748,-87.65982657,6.666666667,3,2,0,0
2671483,CITY LINE  CAFE,41.98109378,-87.84407563,0,2,2,0,0
2626722,PLAY KITCHEN & COCKTAILS,41.90382674,-87.6289923,0.333333333,3,1,0,0
2069345,LOU MALNATI'S PIZZERIA,41.90239382,-87.62846892,3,3,1,0,0
2458402,Earl's BBQ,41.96868864,-87.77811463,13,4,2,0,0
1336958,CHICAGO'S PIZZA,41.96137293,-87.67682523,6,3,1,0,0
2583193,SLICE FACTORY,41.81264929,-87.72391214,3,1,1,0,0
2216860,MOLADE' CHILD DEVELOPMENT CENTER,41.90108677,-87.7485402,0,1,1,0,0
2542212,SOUTH LOOP MARKET,41.93603915,-87.65382872,6.5,2,2,0,0
2369214,CESCAS MARGARITA BAR & GRILL,41.97994675,-87.66813912,7.5,2,1,0,0
28690,DUNKIN DONUT,41.98352906,-87.65915456,1.333333333,3,1,0,0
3070,HUCK FINN DONUTS,41.83183073,-87.67552719,4,1,1,0,0
44712,HOLLYWOOD GRILL,41.91051964,-87.66774969,10,2,2,0,0
2319786,,41.87950665,-87.68624161,2,1,1,0,0
28114,KORDIAN'S MARKET,41.97598405,-87.78656131,14,1,1,0,0
1738099,RANALLI'S,41.97812336,-87.66875587,6.333333333,3,1,0,0
2684565,RIO TACO'S,41.97583612,-87.71058817,7.5,2,1,0,0
78239,MARMALADE CHICAGO,41.96135202,-87.67871719,7.5,2,1,0,0
1477513,DELITIME L.L.C.,41.98748169,-87.8448585,15,1,1,0,0
2447171,SYMPHONY MIDWAY,41.8119896,-87.74312825,4.666666667,3,1,0,0
2684115,TACOS & SALSAS LLC,41.77879076,-87.70756127,2,1,1,0,0
2476760,KARACHI CHAT HOUSE,41.99766158,-87.68750364,14.33333333,3,2,0,0
1475038,PAN BAGUETTE BAKERY,41.74143279,-87.72150847,8,2,2,0,0
2125360,SAN JUAN BAKERY,41.90995498,-87.71083697,10,2,1,0,0
1997874,FOUNTAIN HEAD,41.96157037,-87.67880022,20,1,2,0,0
37209,LOS PANCHO'S RESTAURANT,41.77849967,-87.72673559,9.5,2,2,0,0
2616196,SIBLINGS SOUL FOOD,41.74589127,-87.66317832,9.6,5,2,0,0
1879922,PAULA & MONICA'S PIZZERIA,41.89620682,-87.66574338,5,1,1,0,0
2423352,KHYBER PASS,41.93829231,-87.64907347,16,2,2,0,0
2595283,PEKE'S POZOLE,41.80721665,-87.72371316,10,1,1,0,0
1888944,"MISS ASIA, LLC",41.9329932,-87.64071617,13,1,1,0,0
2636845,ROOTS HANDMADE PIZZA - SECOND CITY/UTOPIAN TAILGAT,41.91149437,-87.6348681,0,2,1,2,1
2550793,LITTLE RED RIDING HOOD,41.9743675,-87.8180473,0,1,1,0,0
1270916,"S & H CONVENIENT STORE,INC.",41.74990987,-87.70696835,9,2,2,2,1
2487433,STEAK AND HOAGIE,41.7629663,-87.68334058,9,1,1,0,0
2636847,ROOTS HANDMADE PIZZA - SECOND CITY/UTOPIAN TAILGAT,41.91149437,-87.6348681,0.5,2,1,0,0
2522216,SOMERSET,41.90231192,-87.62849738,2.666666667,3,1,0,0
1974239,THE WATERFRONT CAFE,41.99520222,-87.65539831,1,2,2,0,0
2308185,SMAKOSZ RESTAURANT,41.96766365,-87.76825902,4,3,2,0,0
2528737,PRINCI,41.88443496,-87.65216555,4,2,1,2,1
2658639,SENOR PAN CAFE,41.93132565,-87.75383505,4.25,4,2,0,0
67609,DELIGHTFUL  PASTRIES,41.96756178,-87.77586829,5,2,2,0,0
2156798,JAIYEN II,41.93937772,-87.6976759,8,2,1,0,0
2583306,EGGSPERIENCE,41.94102195,-87.64428254,10,4,1,0,0
2088929,YEMEN RESTAURANT,41.96766784,-87.74018351,14,2,2,0,0
2379132,BOJONOS PIZZERIA,41.95813412,-87.64965709,11,2,1,0,0
10559,PODHALANKA RESTAURANT,41.90324287,-87.66706205,2,1,1,0,0
2601035,FACEBOOK,41.8855345,-87.63667609,5,2,1,0,0
1194944,7-ELEVEN,41.93015264,-87.64339328,5,1,1,0,0
1272746,PETERSON FOOD MART,41.99058521,-87.69353452,5.5,2,1,1,1
2423441,ENJOYACORN,41.74986856,-87.70965324,7,1,1,0,0
2313937,D&D PLACE RESTAURANT,41.74160421,-87.70232034,7.5,2,2,2,1
2405204,BE LEAF,41.88270035,-87.63663756,3.5,2,1,0,0
1331447,SWEET WORLD PASTRY,41.98051344,-87.7723394,7,1,1,0,0
2684506,CERES FOOD GROUP,41.739233,-87.62568387,1,1,1,0,0
2670396,THE GARDEN OF HEAVEN CHILDCARE ACADEMY INC.,41.75487382,-87.66369442,2,1,1,0,0
2684846,JIMMY JOHNS,41.8950624,-87.62801032,0,1,1,0,0
1518304,MORSE FRESH MARKET,42.00799492,-87.66717415,5.5,2,1,0,0
2293158,HEALTHY KIDS KITCHEN,41.95819877,-87.64965877,10,2,1,1,1
1476422,THE NEW MICDUCK'S DRIVE IN INC,41.93916783,-87.71254599,5,1,1,1,1
2363040,PIZANO'S,41.88198219,-87.62564147,4,1,1,0,0
2556034,TAQUERIA EL PATRON,41.85164289,-87.70640811,6,4,2,0,0
2658971,MEATHEADS,41.9414762,-87.68837416,0.5,4,1,0,0
2379398,KITCHFIX,41.89081448,-87.6708259,5.5,2,2,0,0
2333013,BAR TAKITO,41.88569922,-87.65184383,5,3,1,0,0
2602146,PAN ARTESANAL,41.92467025,-87.72044496,5.666666667,3,2,0,0
2379689,YUZU SUSHI AND ROBATA GRILL,41.89588888,-87.67179637,11,2,1,0,0
1394,JEWEL FOOD STORE,41.98218988,-87.66865163,6,4,2,0,0
2373965,MAMA LUNA PIZZERIA,41.9450767,-87.81685629,5,1,1,0,0
2464263,BIG & LITTLE'S RESTAURANT,41.92487124,-87.70243666,13.5,2,1,0,0
2683707,Herbal Life,41.79822431,-87.70354311,3,2,1,0,0
1477822,APPLE FOOD MART,41.88023654,-87.75722039,8.5,2,2,2,1
2658639,SENOR PAN CAFE,41.93132565,-87.75383505,4.25,4,2,0,0
2683532,AY CARBON POLLO GRILL,41.79875026,-87.72346641,6.333333333,3,2,0,0
2483240,TIERRA MEXICANA,41.93851797,-87.76252173,15,1,1,0,0
2158281,5411 EMPANADAS,41.9339798,-87.64601179,5.666666667,3,2,0,0
3642,THE MEDICI,41.79136503,-87.59370039,0,1,1,0,0
2437382,MINGHIN CUISINE KITCHEN,41.83264971,-87.67419338,6,1,1,0,0
2583839,EL CANGREJO,41.81209529,-87.707725,7,1,1,0,0
2657927,TACONAZO EL ORIGINAL #1,41.90994655,-87.72995037,7.5,6,1,1,2
1443878,MCDONALDS,41.99549428,-87.66028637,0,2,1,0,0
2411506,BURGER KING,41.90377045,-87.66690457,4,3,1,0,0
2013325,DUNKIN DONUTS,41.90450211,-87.64826687,1.5,2,1,0,0
2452000,NORTH STAR LEARNING CENTER,41.98325077,-87.77483399,2.333333333,3,1,0,0
2622876,"SUBS & SHOP 63RD,  INC",41.77913305,-87.68470664,15,2,2,0,0
2009116,OWEN  &  ENGINE,41.9304398,-87.68799105,20,1,1,0,0
2341070,PAPA JOHN'S PIZZA,41.93062311,-87.64401133,8,2,1,1,1
2535924,CURRY ON FIRE,41.86959707,-87.65234902,7,1,1,0,0
2511252,FISCHMAN PUBLIC HOUSE,41.95439288,-87.74916798,7,2,1,0,0
1969227,UKRAINA DELI,41.89589024,-87.68467413,9,1,1,0,0
13994,ALDI FOODS #91,41.88065941,-87.72219367,2.5,2,2,0,0
2636843,ROOTS HANDMADE PIZZA - SECOND CITY/UTOPIAN TAILGAT,41.91149437,-87.6348681,2.5,2,1,0,0
1394,JEWEL FOOD STORE,41.98218988,-87.66865163,6,4,2,2,2
1694954,INTELLIGENTSIA COFFEE & TEA,41.88438732,-87.62593565,6,1,1,0,0
1802253,AUNTIE ANNE'S PRETZEL,41.75466012,-87.74138476,11,1,1,0,0
1544738,SUBWAY,41.97580851,-87.71302648,2,2,1,0,0
2452000,NORTH STAR LEARNING CENTER,41.98325077,-87.77483399,2.333333333,3,2,0,0
2501098,MI TOCAYA,41.92857498,-87.69757835,15.5,2,2,0,0
2341038,STAR LOUNGE COFFEE BAR,41.89559836,-87.69016095,4,2,2,2,1
2541853,O'S DONUTS & CAFE INC,41.75466012,-87.74138476,15.5,2,2,0,0
1959502,All Style Buffet,41.8149936,-87.7237077,6,2,1,2,1
2014055,SPORTS CORNER,41.9473594,-87.65401931,7,2,1,0,0
2684483,PARK TO SHOP SUPERMARKET CANAL,41.85665718,-87.63875335,4,1,1,0,0
2215617,RAINBOW DAY CARE CENTER,41.95400765,-87.71009197,4,1,1,0,0
2205289,NORWOOD CROSSING,41.99089917,-87.80005474,6.5,2,1,0,0
2183768,STEVOS GRILL,41.93958169,-87.68666228,1.5,2,2,0,0
2683918,,41.93842646,-87.7860894,3,1,1,0,0
2120806,LUGANOS PIZZA,41.76035641,-87.70236441,5,2,1,0,0
53740,EAT FIRST CHINESE FOOD,41.9391926,-87.71156589,6.5,2,1,1,1
2385750,MR QUILES MEXICAN FOOD #2,41.85045102,-87.65879786,6,2,1,0,0
2334704,BAR COCINA,41.93450054,-87.65377549,7.333333333,3,2,0,0
2069435,HANNAH'S BRETZEL,41.87988544,-87.62921159,9,1,1,0,0
2129944,Halsted Street Deli,41.98114396,-87.84108737,10,1,1,0,0
2677267,HIGH IMPACT FIT CLUB,41.77394236,-87.72278658,0.5,2,2,0,0
2657927,TACONAZO EL ORIGINAL #1,41.90994655,-87.72995037,7.5,6,2,0,0
2215790,"JONES ACADEMY, INCORPORATED",41.81511208,-87.63130758,5,1,1,0,0
2069042,LA LENA,41.91005175,-87.72131578,11.4,5,2,0,0
1649359,CORNER BAKERY CAFE,41.88814015,-87.62469579,6.333333333,3,1,2,1
2631601,FANCY PLANTS CAFE,41.93903281,-87.64494165,6.5,2,2,0,0
63983,CHICAGO BAGEL AUTHORITY,41.91800028,-87.6530511,6,1,1,0,0
2551090,LA MIXTECA POBLANA,41.85045102,-87.65879786,0,2,1,0,0
2457971,CLARIDGE HOUSE,41.90521531,-87.63016995,2,1,1,0,0
1933344,LEAMINGTON FOODS INC,41.86649731,-87.70733779,4,1,1,0,0
2601357,BLACKSTONE MARKET/MERCAT,41.87365926,-87.6243595,6,1,1,0,0
2385784,PERFECT BEGINNINGS CHILD DEVELOPMENT CENTER,41.67768507,-87.65901955,2.5,2,2,1,1
2684513,"PASSION HOUSE CAFE #3, LLC",41.90352307,-87.65561372,3,1,1,0,0
2162577,OFF THE TRACKS,41.88553435,-87.6340712,11,2,1,1,1
1766607,7-ELEVEN,41.99059126,-87.68952829,7,1,1,1,1
2636845,ROOTS HANDMADE PIZZA - SECOND CITY/UTOPIAN TAILGAT,41.91149437,-87.6348681,0,2,2,0,0
2205289,NORWOOD CROSSING,41.99089917,-87.80005474,6.5,2,1,0,0
2684488,"PIE, PIE MY DARLING",41.89578777,-87.69327449,2,1,1,0,0
2631965,TRUE JUICE,41.89585921,-87.70079612,1.5,4,1,0,0
2398940,PASTES Y EMPANADAS GOLDEN TUZO,41.93136092,-87.76822806,5,2,2,0,0
2670354,SALERNO'S,41.8909699,-87.65746646,7,1,1,0,0
2437117,UNIVERSITY VILLAGE MONTESSORI SCHOOL,41.86500942,-87.64700131,2,1,1,0,0
1844144,"SUNVIEW GROCERY & PRODUCE, INC.",41.77791532,-87.77446237,7.428571429,7,1,0,0
1573356,JIMMY JOHN'S,41.89681131,-87.6264488,5,1,1,0,0
2631065,HALAL PITTA GRILL,41.90450211,-87.64826687,7,1,1,0,0
2398633,GORILLA SUSHI,41.97075873,-87.76314718,6,3,1,0,0
68226,AWAMI BAZAAR & ZABIHA MEAT,41.99785369,-87.68906427,14,1,1,1,1
2442794,MI TIERRA SOUTH RESTAURANT,41.84545141,-87.70521429,7.5,4,2,0,0
35062,BEST BUY FOOD & LIQUOR,41.96160692,-87.6758913,5,1,1,0,0
2215606,KALINA PRE-SCHOOL & KINDGARTEN,41.95587415,-87.69844466,0,1,1,1,1
2536639,NOAH'S ARK CHRISTIAN DAYCARE,41.69474039,-87.62063554,2.5,2,2,0,0
2404614,GUERRERENSE RESTAURANT,41.92434992,-87.74624359,11,1,1,1,1
2664014,ORA CASUAL DINING,41.94564478,-87.77821026,2,1,1,0,0
2564005,,41.88546054,-87.65289418,8.5,2,1,0,0
2247280,ORIGINAL MAXWELL STREET,41.87340465,-87.72039963,4,1,1,0,0
2359976,ROSELAND COMMUNITY GOOD NEWS DAY CARE CORP,41.68899719,-87.62832759,2,1,1,1,1
1335044,CHIPOTLE MEXICAN GRILL,41.93291818,-87.6445079,2,1,1,0,0
28853,MOY LEE RESTAURANT,41.97776393,-87.76982985,8,1,1,0,0
2658781,MAYFLOWER FOOD,41.8542653,-87.63218951,1,1,1,0,0
2652875,ORA CASUAL DINING,41.94564478,-87.77821026,3,3,1,1,2
2202828,PIZZA BY GENEO,41.78622899,-87.69781773,13,2,1,1,1
2671528,TATAS TACOS,41.95326383,-87.751092,0.5,2,2,0,0
2363482,"NATURAL FOOD CATERING, CORP.",41.94457214,-87.6537129,5,2,2,2,1
2678185,DEVELOPMENTAL INSTITUTE,41.76683033,-87.58579398,0,1,1,0,0
404,CELTIC CROWN,41.95953928,-87.6884838,9.5,2,1,0,0
2328517,SUNNY'S SUBMARINE,41.89506187,-87.75431855,2.75,4,1,0,0
2215730,THE CHILDREN'S PLACE ASSN,41.91392525,-87.70212765,9,2,2,2,1
51686,COCHIAROS PIZZA,41.94571656,-87.7666033,4,2,1,1,1
2663812,MI TIERRA SOUTH RESTAURANT,41.84545141,-87.70521429,0,1,2,0,0
1476091,VINES ON CLARK,41.94684371,-87.65640059,9,1,1,0,0
59230,THE BEETLE BAR & GRILL,41.89581359,-87.69068394,6,1,1,1,1
2670355,SALERNO'S,41.8909699,-87.65746646,0,1,1,0,0
2636847,ROOTS HANDMADE PIZZA - SECOND CITY/UTOPIAN TAILGAT,41.91149437,-87.6348681,0.5,2,2,0,0
1845744,FAMILY DOLLAR #5478,41.9953099,-87.68995109,4.666666667,3,1,1,1
2386062,JET'S PIZZA,41.91274015,-87.8057506,4,3,1,0,0
2560031,ASTORIA CAFE & BAKERY,41.95406094,-87.70291104,7,1,1,0,0
2398633,GORILLA SUSHI,41.97075873,-87.76314718,6,3,1,0,0
2125360,SAN JUAN BAKERY,41.90995498,-87.71083697,10,2,2,0,0
2304443,THE NURTURE NOOK,41.91755692,-87.68209285,8,1,1,0,0
2102697,MO DAILEY'S PUB & GRILLE,41.99148226,-87.79781164,8,1,2,0,0
2671297,JCYS IRIS & STEVEN PODOLSKY FAMILY CENTER,41.96882125,-87.68220089,3,2,2,0,0
2215768,STEPPING INTO THE FUTURE,41.96877092,-87.66878337,10,1,1,0,0
2278549,UNIVERSITY VILLAGE MONTESSORI SCHOOL,41.86525704,-87.64700825,5,1,1,1,1
2636843,ROOTS HANDMADE PIZZA - SECOND CITY/UTOPIAN TAILGAT,41.91149437,-87.6348681,2.5,2,2,0,0
2152021,BIG SHOULDERS COFFEE WORKS,41.89615635,-87.65547454,0,1,1,0,0
2138021,Subway,41.90918795,-87.79091085,0,1,1,1,1
2158051,MOSES BUTCHER SHOP,41.90216644,-87.75318235,8,1,1,0,0
2677311,DOLLAR TREE,41.99743158,-87.70071117,4,1,1,0,0
2437677,SMART START DAY CARE,41.89471708,-87.76727145,4,1,1,0,0
2379582,CHICAGO MARRIOTT O'HARE HOTEL,41.98678859,-87.84012417,10,1,1,0,0
1478565,TACO EL JALICIENSE,41.89552708,-87.69909818,5,1,1,0,0
2506989,SHIRLEY'S CAFE,41.88051272,-87.73443791,2,3,1,0,0
2600676,MCDONALD'S,41.88191446,-87.68630385,3,1,1,0,0
2163841,THE THAI GRILL,41.9947006,-87.65718306,4,1,1,0,0
2437219,FALAFEL DREAM,41.95225489,-87.80739691,2,2,2,0,0
48878,TAQUERIA  LA ZACATECANA,41.93660967,-87.69789301,5.5,2,1,0,0
2216124,GIFTED CHILDREN ACADEMY,42.01947292,-87.66917452,3,1,1,1,1
1902989,PUNTA CANA RESTAURANT INC.,41.92104505,-87.71214152,14,3,2,0,0
2432436,KIDS + COMPANY,41.9143422,-87.63373572,2.5,2,2,0,0
2283660,BRIA OF FOREST EDGE,41.74824561,-87.68265725,2,1,1,0,0
2683828,ASHAR MART,41.96837295,-87.70502516,3.666666667,3,2,1,1
2428020,POPEYE'S,41.99629003,-87.71675089,12,1,1,0,0
2684305,JERKY JERK RARE,41.86890767,-87.68327539,4,1,1,0,0
2684038,ACE PIZZE 2,41.76522469,-87.62343919,4.333333333,3,1,2,2
2510890,CHIU QUON BAKERY,41.83353525,-87.67274903,8,1,1,0,0
39845,THE REVELER,41.94332804,-87.67818416,10.66666667,3,2,0,0
1909520,MANCHU WOK  (T3 ROTUNDA),42.0085364,-87.91442844,4,2,1,0,0
14431,HOLY CROSS HOSPITAL/EMPLOYEE CAFETERIA,41.76992924,-87.69084134,2,1,1,0,0
2578895,AZTLAN MEXICAN GRILLL 1 INC.,41.96123967,-87.71307662,7,1,1,0,0
2418971,TAQUERIA LA FOGATA,41.96107163,-87.72666843,7,1,1,1,1
2204504,SQUIRE'S SHELTERED CARE HOME,41.92879376,-87.69737828,6.5,2,2,0,0
2411336,"CHILDREN'S CREATIVE CENTER, INC.",41.939669,-87.67945731,1,2,1,0,0
2215550,LYDIA HOME ASSOCIATION DAY CARE,41.95366789,-87.73550783,4,2,1,0,0
2423649,YOYO FOOD MART,41.87368288,-87.69622204,8,1,1,1,1
2205578,HOLY CROSS HOSPITAL/EMPLOYEE CAFETERIA,41.76992924,-87.69084134,6,1,1,0,0
2565135,D ARCO'S PIZZA,41.77899474,-87.69421036,3,6,2,1,2
2684533,TEA NINJA,41.93878358,-87.64420917,0,1,1,0,0
82246,CAFE BRAUER,41.91907804,-87.63453812,0,1,1,0,0
1980748,PARK PLACE CAFE,41.9220638,-87.63223306,0,1,1,0,0
2631164,TEA LEAF GARDEN,41.99765846,-87.68767204,6.5,2,1,0,0
2496273,GIFTED CHILDREN ACADEMY,42.01932423,-87.67859964,4,2,1,2,1
2215997,ANGELS DAY CARE CENTER,41.974635,-87.69206571,1,1,1,0,0
34210,BRIOCHE DOREE  (T3/G/ROTUNDA),42.0085364,-87.91442844,2,2,1,2,1
1476348,ATINO'S PIZZA # 2 INC,41.86733048,-87.64211743,13,1,1,0,0
1272041,7-ELEVEN,42.00508007,-87.68992474,3,1,1,0,0
2283226,TARGET,41.90376961,-87.64336894,0.5,2,2,0,0
1649665,EL RANCHITO FOOD MARKET,41.76423659,-87.72000987,13,2,2,0,0
2683707,Herbal Life,41.79822431,-87.70354311,3,2,2,1,1
2684565,RIO TACO'S,41.97583612,-87.71058817,7.5,2,2,0,0
1044752,COCHIAROS PIZZA #2,41.92414063,-87.74552934,7.5,4,1,0,0
2616365,NOAH'S ARK CHRISTIAN DAYCARE INC.,41.70074439,-87.64278839,4.666666667,3,2,0,0
2411733,SUBWAY,41.81310105,-87.72392832,3,1,1,1,1
2451427,CERMAK FRESH MARKET,41.93189772,-87.72710503,9.2,5,2,0,0
1358636,TAQUERIA EL PASTOR,41.77864307,-87.73341208,5,2,1,0,0
1336958,CHICAGO'S PIZZA,41.96137293,-87.67682523,6,3,1,2,2
2684170,Babas Halal,41.75018934,-87.67298584,7.5,2,2,0,0
2529235,GEORGE'S,41.79877258,-87.74149891,7,1,1,1,1
2641665,ALBANY PLACE BAR & GRILL,41.96392783,-87.72776333,7.5,4,2,0,0
1742764,BARNEY'S PIZZA,41.89493601,-87.76732423,8,1,1,0,0
1726,NEW ARCHVIEW RESTAURANT INC,41.83069228,-87.67740468,3.5,2,1,0,0
2469885,L' PATRON,41.92443853,-87.7214259,9,2,2,2,1
1678043,WHOLE FOODS MARKET,41.86888971,-87.63909893,3.333333333,3,1,0,0
25772,COCULA RESTAURANT,41.73416431,-87.55121062,7.75,4,2,0,0
2641666,ALBANY PLACE BAR & GRILL,41.96392783,-87.72776333,0,3,2,0,0
1980425,SUBWAY,41.94559899,-87.76659924,2,2,1,1,1
2432435,KIDS + COMPANY,41.9143422,-87.63373572,0,2,2,0,0
2647156,LOLAS CONEY ISLAND,41.89574658,-87.6991028,4.25,4,1,0,0
82243,CAFE BRAUER,41.91907804,-87.63453812,1,1,1,0,0
2641863,OSV,41.75821229,-87.61984215,8.5,4,1,0,0
11562,CALIHAN CATERING,41.90103213,-87.64894105,5,1,1,0,0
1544738,SUBWAY,41.97580851,-87.71302648,2,2,2,0,0
1336669,PETE'S  FRESH MARKET,41.81391431,-87.72366494,9,1,1,0,0
2646382,NORI SUSHI CHICAGO,41.90720855,-87.67228168,6,3,1,0,0
2517018,NUTS ON CLARK (T5 ARRIVAL),42.0085364,-87.91442844,8,1,1,0,0
2501366,HACHI SUSHI,41.81391431,-87.72366494,10,1,1,0,0
39851,BROWNSTONE TAVERN & GRILL,41.95338993,-87.67805669,11.66666667,3,1,0,0
2487849,Scandinavian Lounge (T5-M13),42.0085364,-87.91442844,1,1,1,0,0
2246884,DUNKIN DONUTS,41.89638448,-87.65541112,4,1,1,0,0
2093910,STARBUCKS COFFEE #9942,41.73633471,-87.62864522,3,1,1,1,1
2636662,LA FUENTE RESTAURANT,41.78617397,-87.71487272,11.5,2,1,0,0
37708,OLD LWIW RESTAURANT INC,41.89591621,-87.68313819,15,1,1,0,0
40429,SUPER FOOD & LIQUORS,41.98356391,-87.65714629,3,1,1,0,0
2215692,THRESHOLDS,41.93997637,-87.65702098,2,1,1,0,0
2621867,SIAM  TREASURE,42.01148253,-87.80678811,10,1,1,0,0
2429193,DANNY'S PIZZA PLACE,41.79484996,-87.76728036,2,1,1,0,0
2641464,BROTHER'S RESTAURANT,41.93947287,-87.70278709,1,1,1,1,1
43079,PEPE'S MEXICAN RESTAURANT,41.77884294,-87.70438274,5.5,2,1,0,0
2559648,THE ELEPHANT THAI CUISINE,41.99722145,-87.76290247,14,1,1,0,0
2641421,BP,41.87454614,-87.73540433,1.666666667,3,2,0,0
2458056,BRAIN BOX LITERACY AND EDUCATIONAL SERVICES,41.72467181,-87.66290847,2,1,1,0,0
2368671,7-ELEVEN,41.99439639,-87.80239444,5.666666667,3,2,0,0
2204282,WOODBRIDGE NURSING PAVILION LT,41.92241897,-87.70729241,11.5,2,2,0,0
28690,DUNKIN DONUT,41.98352906,-87.65915456,1.333333333,3,2,0,0
2522463,FORNO ROSSO,41.94762507,-87.80694059,3,1,1,0,0
2511905,TEXICAN,41.89845129,-87.64286468,0,1,1,1,1
2535929,H MART,41.87787174,-87.64450946,2.333333333,3,2,0,0
2535929,H MART,41.87787174,-87.64450946,2.333333333,3,1,0,0
1997591,SHAWARMA INN,41.98207583,-87.69311745,13,2,1,1,1
31294,"FOOD LIFE/LETTUCE OFF PREM, CA",41.89774086,-87.62396132,6.5,2,1,0,0
41243,COCONUTZ,41.90382236,-87.62924445,0.666666667,3,1,2,2
42683,SANTORINI,41.87927791,-87.6474293,13.5,2,1,0,0
2683532,AY CARBON POLLO GRILL,41.79875026,-87.72346641,6.333333333,3,2,0,0
1330095,"HALSTED SHELL, DUNKIN DONUTS, MR SUB",41.71580477,-87.64320825,7.333333333,3,2,2,2
68304,NICKY'S,41.80961441,-87.72350171,5,1,1,0,0
2589876,BUREAU BAR AND RESTAURANT,41.86490457,-87.64598128,6,4,2,2,2
78239,MARMALADE CHICAGO,41.96135202,-87.67871719,7.5,2,2,0,0
14709,REGGIO'S PIZZA III,41.7363802,-87.62769923,5.666666667,3,2,0,0
48870,MC NAMARA'S FOOD & DRINKS,41.95365435,-87.73664589,9.6,5,1,0,0
2288900,FOREVER YOGURT,41.86939894,-87.6648343,6.5,2,1,0,0
2678156,GORDO'S HOMEMADE ICE CREAM,41.87277296,-87.6290004,1,1,1,0,0
2069923,BIG BRICKS,41.95130146,-87.67693521,9.5,2,2,0,0
2501352,Pupuseria & Restaurant El Cuscatleco,41.96835658,-87.70710948,8.5,2,1,0,0
2437509,IMMM,41.97296305,-87.65962862,10,1,1,0,0
2289531,HUDSON (T5 M12),42.0085364,-87.91442844,3,1,1,0,0
2559559,M & G PIZZA,41.93309241,-87.66343576,4,2,1,0,0
2517808,BRITISH AIRWAYS-1ST CLASS (T5-M12),42.0085364,-87.91442844,4,1,1,1,1
2684389,ASIAN TOWN NOODLES,41.94520738,-87.81568964,2,1,1,0,0
2477302,PT FITNESS LLC,41.88155881,-87.64133123,3.5,2,1,0,0
2326536,JIMMY JOHNS,41.90693003,-87.65064506,4,1,1,0,0
2684104,,41.72947638,-87.55109579,7,1,1,1,1
2162577,OFF THE TRACKS,41.88553435,-87.6340712,11,2,2,0,0
1196305,RIO VALLEY MARKET,41.77881858,-87.70590358,10,1,1,1,1
1494999,HQ BEERCADE,41.89730374,-87.63480417,5,1,1,1,1
2369214,CESCAS MARGARITA BAR & GRILL,41.97994675,-87.66813912,7.5,2,2,0,0
2252317,EDGEBROOK COFFEE SHOP,41.99663043,-87.76418727,11,1,1,1,1
1591726,PETE'S  MARKET,41.78660841,-87.72313003,8,1,1,0,0
2671261,CHARCOAL FLAME,42.00913302,-87.67384638,8,2,2,0,0
28299,THE FRONTIER,41.90128364,-87.66348362,3,1,1,0,0
48878,TAQUERIA  LA ZACATECANA,41.93660967,-87.69789301,5.5,2,2,0,0
2446407,PARK AND FIELD,41.92452948,-87.71414212,13,3,1,0,0
19347,SALONICA RESTAURANT,41.79161998,-87.59018904,6,1,1,0,0
2263913,WING WAH LAU RESTAURANT,41.81455427,-87.7037213,11,1,1,0,0
2658575,PORTSMITH/APOGEE,41.89418322,-87.62828581,0,1,1,0,0
83345,MILLENNIUM KNICKERBOCKER HOTEL-NIX,41.89991467,-87.62305951,6.25,4,1,0,0
2004462,SUBWAY,41.91843669,-87.63851035,5,1,1,0,0
2589825,APPLE SPICE BOX LUNCH DELIVERY AND CATERING CO.,41.86732299,-87.64265423,9,1,1,0,0
2411336,"CHILDREN'S CREATIVE CENTER, INC.",41.939669,-87.67945731,1,2,2,0,0
2677435,PORTSMITH/APOGEE,41.89418322,-87.62828581,0,1,1,0,0
2684203,"MAYA SUPERSTORE, INC.",41.77894012,-87.71186857,18,1,2,0,0
2309123,PETE'S FRESH MARKET,41.88106937,-87.68530755,4.25,4,1,1,1
1797826,THE KIDS' TABLE,41.91022606,-87.68622585,10.5,2,2,0,0
21262,OSCAR'S FOODS INC,41.93850968,-87.77989876,2,2,1,0,0
2511272,DECOLORES BURRITO JOINT,41.78932932,-87.74164564,1.5,2,1,0,0
2522423,HAROLD'S CHICKEN,41.86878384,-87.68624469,5,1,1,0,0
2658572,PORTSMITH/APOGEE,41.89418322,-87.62828581,0,1,1,0,0
2528265,FUNKENHAUSEN,41.89591707,-87.67010212,7,1,1,1,1
1304245,FOUR A'S FOOD INC,41.87363515,-87.70086224,4,1,1,0,0
1470,VILLA PALERMO PIZZA,41.99792642,-87.68478486,5.666666667,3,1,0,0
2684167,ASIAN STATION,42.00780902,-87.66542848,6,1,1,0,0
2646916,THE BAD APPLE,41.95956999,-87.68272231,0.75,4,1,0,0
2641757,"CRAVE B2B, LLC",41.88567164,-87.68177223,1.666666667,3,1,0,0
2677553,PENNY'S ROSCOE,41.94361136,-87.65436891,4,2,1,0,0
1272746,PETERSON FOOD MART,41.99058521,-87.69353452,5.5,2,2,0,0
6539,DOUBLE BUBBLE,41.99191242,-87.66047397,2,1,1,0,0
38483,NATY'S PIZZA #2,41.89588463,-87.67203069,4,1,1,1,1
2670676,LITTLE LEADER'S ACADEMY,41.76858237,-87.67105573,11,1,2,0,0
1822499,VILLA PALERMO,41.9981314,-87.68487441,6,1,1,0,0
1479249,ROCKWELL'S NEIGHBORHOOD GRILL,41.96580613,-87.69386749,20,2,2,0,0
2684331,DOCK'S GREAT FISH,41.83098092,-87.61844954,4,2,1,0,0
2031962,MC DONALDS,41.72235445,-87.57577806,1.5,2,1,1,1
2423352,KHYBER PASS,41.93829231,-87.64907347,16,2,2,0,0
1646219,WEST RIVER CAFE,41.96122536,-87.70839695,17,1,1,0,0
1044933,FRANCESCA'S BRYN MAWR,41.98357123,-87.65675393,3,1,1,1,1
2368811,BURGER KING,41.7222678,-87.58251019,4,1,1,0,0
2642004,EINSTEIN BAGELS/ DECOLORES,41.78932932,-87.74164564,3,4,1,0,0
2658568,PORTSMITH/APOGEE,41.89418322,-87.62828581,3,1,1,0,0
2368877,INSOMNIA COOKIES,42.00014773,-87.66084731,7,1,1,0,0
2380171,WEST TOWN WINE & SPIRITS,41.91018382,-87.68972702,15,2,2,1,1
2897,OPEN KITCHENS,41.85370667,-87.65547641,5,1,1,0,0
2293158,HEALTHY KIDS KITCHEN,41.95819877,-87.64965877,10,2,2,0,0
2379132,BOJONOS PIZZERIA,41.95813412,-87.64965709,11,2,2,2,1
1122751,SKYLARK,41.85274954,-87.64635125,1.25,4,1,0,0
79650,HONG KONG DELIGHT IV,41.83098586,-87.61813057,1,1,1,0,0
2658570,PORTSMITH/APOGEE,41.89418322,-87.62828581,0,1,1,0,0
2658569,PORTSMITH/APOGEE,41.89418322,-87.62828581,0,1,1,0,0
2549692,JERUSALEM GRILL,41.93780117,-87.78606639,6,1,1,0,0
2433121,RED SNAPPER,41.74392291,-87.61468749,7,1,1,1,1
1245673,CAFE MIMOZA,41.96845247,-87.69487468,6.666666667,3,2,0,0
2470284,WEATHERSEY WONDER WORLD INC,41.69265163,-87.61106998,3,2,1,1,1
1963533,7-ELEVEN #33732A,41.98355943,-87.65738202,2,1,1,0,0
2652664,KAATHIS,41.923574,-87.64593223,4.666666667,3,1,0,0
2658573,PORTSMITH/APOGEE,41.89418322,-87.62828581,0,1,1,1,1
2293013,KOKO'S MEDITERRANEAN GRILL,41.89610267,-87.67211595,9,1,1,0,0
1916161,TUSCANY CAFE (T1-B18),42.0085364,-87.91442844,4,2,1,0,0
1738099,RANALLI'S,41.97812336,-87.66875587,6.333333333,3,2,0,0
2405544,KREATIVE KIDZ ACADEMY III,41.75108435,-87.62372877,2,3,2,0,0
2684074,WINK SUPERMARKET INC.,41.78664903,-87.68539646,3,1,1,0,0
2574400,URBAN VEGAN,41.96148065,-87.6693342,4.666666667,3,1,0,0
2245884,BAR BISCAY,41.89622765,-87.66443518,5,1,1,0,0
2683875,K I AFRICAN RESTAURANT,42.01258706,-87.67448205,7,2,2,0,0
1899278,PICCOLO SOGNO,41.89086215,-87.6477706,6,1,1,0,0
2368572,MARIANO CAFE,41.9168114,-87.74723169,3.5,2,1,0,0
1047362,THE FAMOUS TACO BURRITO KING,41.94687979,-87.68811383,7,1,1,1,1
2469387,GILT BAR/ DOUGHNUT VAULT,41.88926162,-87.63518206,4,1,1,0,0
2437279,ATHENA RESTAURANT,41.87880138,-87.6474162,14,1,1,0,0
2437850,EL NUEVO TACONAZO,41.85214285,-87.68528173,12.5,2,1,0,0
1801885,POTBELLY SANDWICH WORKS,41.8817421,-87.64141939,4,2,1,2,1
2583306,EGGSPERIENCE,41.94102195,-87.64428254,10,4,2,0,0
2452122,Cooked Chicago,41.92845408,-87.74661563,3.8,5,1,0,0
2626563,BURGER FEDERATION  (T3 L21),42.0085364,-87.91442844,1.5,2,1,0,0
2215658,LIVING WITNESS LEARNING DAY CARE,41.95690749,-87.75711973,5.5,2,2,0,0
2671125,ENDLEWOOD MARKET,41.78345131,-87.65445295,1,2,1,0,0
2221641,SUBWAY,41.77885938,-87.70340468,4,1,1,0,0
2419371,ROSAS TAMALES,41.77861705,-87.71835406,8,1,1,0,0
2014055,SPORTS CORNER,41.9473594,-87.65401931,7,2,2,0,0
2289511,HUDSON NEWS  (T3-L8),42.0085364,-87.91442844,3,1,1,0,0
1616423,Wrigleyville Rooftops,41.94756006,-87.65419324,4,1,1,0,0
2437682,LOOP JUICE,41.88418751,-87.64111967,3,2,1,0,0
2348814,MINGHIN CUISINE,41.85327022,-87.63424789,6,1,1,0,0
2512007,"ILEARN CENTER OF WEST TOWN, LLC",41.89587989,-87.67229145,1,1,1,0,0
43276,MCDONALDS,41.89224916,-87.60951805,1,1,1,0,0
2385635,MR. GING CHOP SUEY,41.9455403,-87.76659733,4,1,1,0,0
2483311,EL  AZTECA,41.92405911,-87.751728,6.666666667,3,1,1,1
2158450,Las Delicias De Puerto Rico,41.91681503,-87.7470576,5,3,2,0,0
2428508,MR QUILES MEXICAN FOOD #4,41.85045102,-87.65879786,3,1,1,0,0
2129489,DUNKIN DONUTS,41.69167416,-87.70115136,4,3,1,0,0
2464263,BIG & LITTLE'S RESTAURANT,41.92487124,-87.70243666,13.5,2,2,0,0
2423902,LOS GAMAS TORTILLAS Y RESTORANTE,41.91723545,-87.71165855,11.2,5,1,0,0
2385750,MR QUILES MEXICAN FOOD #2,41.85045102,-87.65879786,6,2,2,1,1
2684038,ACE PIZZE 2,41.76522469,-87.62343919,4.333333333,3,2,0,0
2684263,MC DONALD'S,41.83095279,-87.62144916,4,1,1,0,0
2646493,JJ FISH & CHICKEN,41.87468209,-87.73541137,1.5,2,1,0,0
2451378,FLACO'S TACOS,41.99467731,-87.65903118,2.5,4,1,0,0
2684097,NIROS GYRO'S FISH AND CHICKEN,41.9026284,-87.71847814,0,1,1,0,0
2658456,REACH FOR THE STARS DAYCARE,41.90932961,-87.76050079,5,2,1,0,0
2013410,ENGLEWOOD MARKET,41.78345131,-87.65445295,5,2,1,0,0
53740,EAT FIRST CHINESE FOOD,41.9391926,-87.71156589,6.5,2,2,0,0
1845744,FAMILY DOLLAR #5478,41.9953099,-87.68995109,4.666666667,3,2,1,1
2308079,RESTAURANTE SALVADORENO OLOCUILTA,41.93629987,-87.7567498,5.5,2,1,0,0
2496273,GIFTED CHILDREN ACADEMY,42.01932423,-87.67859964,4,2,2,0,0
2437640,CANTON REGIO,41.85793794,-87.66425364,11.5,2,1,0,0
2333013,BAR TAKITO,41.88569922,-87.65184383,5,3,2,2,2
2379689,YUZU SUSHI AND ROBATA GRILL,41.89588888,-87.67179637,11,2,2,0,0
1094878,JJ PEPPERS FOOD STORE,41.94571656,-87.7666033,4.5,2,1,0,0
83345,MILLENNIUM KNICKERBOCKER HOTEL-NIX,41.89991467,-87.62305951,6.25,4,2,0,0
1676771,TARGET/STARBUCKS/PIZZA HUT,41.83414739,-87.67459786,2,1,1,1,1
2013325,DUNKIN DONUTS,41.90450211,-87.64826687,1.5,2,2,1,1
2622876,"SUBS & SHOP 63RD,  INC",41.77913305,-87.68470664,15,2,2,2,2
2487453,SOULE,41.895821,-87.67588999,10.5,2,2,0,0
2683476,SUBWAY,41.70737367,-87.61703039,5,1,1,0,0
2446407,PARK AND FIELD,41.92452948,-87.71414212,13,3,1,0,0
2622236,SLIM'S,41.96155579,-87.67986227,2,2,1,0,0
2292935,DARK MATTER COFFEE,41.8949973,-87.68697066,3.5,2,1,1,1
1227055,SEE THRU CHINESE RESTAURANT,41.89561531,-87.70670533,4.666666667,3,1,1,1
2609722,LONGACRE,41.96521814,-87.66258555,0.5,2,1,0,0
2641447,CAFECITO,41.92550054,-87.6391788,7.666666667,3,1,0,0
2048785,SIXTEEN,41.88928401,-87.62654855,3.5,2,1,0,0
2348486,ODGE'S RESTAURANT,41.89500137,-87.6771711,8,1,1,1,1
2163614,PLENTY,41.96156558,-87.67912568,5,1,1,0,0
2659155,CLARK,41.79402873,-87.67404177,8,1,1,0,0
1593122,TAHOORA SWEETS & BAKERY,41.99763133,-87.68927,9.5,2,1,0,0
2340941,BERNIE'S LUNCH & SUPPER,41.89406149,-87.63725234,0,1,1,0,0
2476940,THE CHICAGO FIREHOUSE RESTAURANT,41.8640026,-87.62393205,8,1,1,0,0
1196614,WEBER GRILL RESTAURANT,41.89200113,-87.62792896,0,2,1,0,0
1649503,LAS ISLAS MARIAS,41.9237502,-87.78988086,5.333333333,3,1,0,0
2671810,DAMEN FOOD MARKET,41.85491132,-87.67577257,1,1,1,0,0
2021498,Jason's Wok,41.86878384,-87.68624469,7,1,1,0,0
2252378,LOS CORRALES TAQUERIA,41.85174455,-87.69882322,4.666666667,3,1,2,2
1300087,POTBELLY,41.94416648,-87.66408481,1,1,1,0,0
2631965,TRUE JUICE,41.89585921,-87.70079612,1.5,4,2,0,0
2231826,KANELA,41.91067609,-87.63484274,5.5,2,1,1,1
2601831,EAT PURELY,41.88314295,-87.66976711,2,2,1,0,0
77262,NORTH AVENUE BEACH HOUSE,41.90962164,-87.62602012,2,1,1,0,0
2404807,ARCLIGHT CINEMAS,41.90856014,-87.64645269,6,1,1,1,1
39845,THE REVELER,41.94332804,-87.67818416,10.66666667,3,2,1,1
37803,CHIU'S GREAT WALL RESTAURANT,41.85388797,-87.63450743,8,2,1,0,0
1247283,Taco & Burrito House,41.9375441,-87.64446343,10,1,1,1,1
2657927,TACONAZO EL ORIGINAL #1,41.90994655,-87.72995037,7.5,6,2,0,0
2522539,RAVENSWOOD MONTESSORI CHILD CARE CENTER,41.96500136,-87.67796426,1,1,1,0,0
47165,CAPT'N NEMOS,41.94849442,-87.66904694,10.5,2,2,0,0
1337,JEWEL FOOD STORE,41.96679711,-87.76729948,21,1,1,0,0
2579146,BREAKFAST HOUSE RESTAURANT,41.93609763,-87.66838427,10,3,1,1,1
2055074,SALAD HOUSE,41.93993522,-87.64454332,4.5,2,1,0,0
2368803,BURGER KING,41.91031369,-87.69854907,12,1,1,0,0
2631858,HAROLD'S CHICKEN #88,41.86267891,-87.6241916,1,1,1,0,0
2373869,WENDY'S OLD FASHIONED HAMBURGERS OF NEW YORK INC.,41.7890046,-87.70328303,1,1,1,0,0
28484,WHITE CASTLE,41.93734614,-87.80687335,7,1,1,0,0
7813,NICKY'S,41.78797636,-87.70325124,8.5,2,2,0,0
2664686,PHLAVZ FOOD TRUCK,41.85045102,-87.65879786,4,1,1,0,0
48870,MC NAMARA'S FOOD & DRINKS,41.95365435,-87.73664589,9.6,5,2,0,0
2659031,PEAR CHEF,41.85118706,-87.61911261,1,2,1,0,0
2535936,MY LITTLE STAR DAYCARE CENTER,41.77845463,-87.73072953,3.5,2,1,0,0
1909010,Lou Malnati's Pizzeria,41.87169869,-87.62737565,3.333333333,3,1,0,0
2663889,PEAR CHEF,41.85118706,-87.61911261,1,2,1,1,1
37086,JEFFERSON TAP AND GRILLE AND THE LOFT,41.88753166,-87.64267793,8,2,1,0,0
51686,COCHIAROS PIZZA,41.94571656,-87.7666033,4,2,2,0,0
2670495,LOS CORRALES TAQUERIA,41.85174455,-87.69882322,0,1,1,1,1
2288887,FESTA PIZZERIA,41.9245199,-87.71484031,9,3,1,1,1
84625,LAS BRISAS DEL MAR,41.80070644,-87.70409936,6,1,1,0,0
0,EPIPHANY PARISH/CHURCH,41.84514342,-87.72958951,5.083333333,24,1,0,0
2564005,,41.88546054,-87.65289418,8.5,2,2,0,0
2569307,ERIK'S DELI,41.87664684,-87.64069512,4,2,1,0,0
2320593,DUNKIN DONUTS/BASKIN ROBBINS,42.01909911,-87.67357517,4.333333333,3,1,0,0
2684331,DOCK'S GREAT FISH,41.83098092,-87.61844954,4,2,2,0,0
1904661,EINSTEIN BROS BAGELS,41.88926953,-87.62973533,5.333333333,3,1,0,0
2470284,WEATHERSEY WONDER WORLD INC,41.69265163,-87.61106998,3,2,2,0,0
2021170,GORDITAS SANTIAGO,41.77860716,-87.71888742,9,1,1,0,0
1299842,JULIUS MEINL,41.94716116,-87.6638707,13,1,1,0,0
1383921,CONTE DI SAVOIA INC WEST,41.86892168,-87.68232167,3,1,1,0,0
2550209,THE UNIVERSITY OF CHICAGO,41.7991431,-87.60618331,1,1,1,0,0
2202828,PIZZA BY GENEO,41.78622899,-87.69781773,13,2,2,0,0
60184,TAQUERIA EL RANCHITO,41.93265694,-87.7130561,6,1,1,0,0
2017847,QDOBA MEXICAN GRILL,41.93253118,-87.65370948,4,2,1,2,1
2505853,KIDS ACADEMY EARLY CHILDHOOD CENTER,41.98417076,-87.77531792,3,1,1,0,0
1958864,THE NEW 400,42.00493638,-87.66101365,9.333333333,3,1,0,0
2328517,SUNNY'S SUBMARINE,41.89506187,-87.75431855,2.75,4,2,1,1
2398633,GORILLA SUSHI,41.97075873,-87.76314718,6,3,2,2,2
1844144,"SUNVIEW GROCERY & PRODUCE, INC.",41.77791532,-87.77446237,7.428571429,7,1,0,0
2555580,WENDY'S,41.96136649,-87.72798668,4,1,1,0,0
2446443,YUMMY CHINESE AND JAPANESE CUISINE,41.94739919,-87.80693252,5,1,1,0,0
25159,SKY CHOP SUEY INC,41.73641424,-87.70219239,4.25,4,1,0,0
1844144,"SUNVIEW GROCERY & PRODUCE, INC.",41.77791532,-87.77446237,7.428571429,7,2,2,2
2215503,LITTLE FOX DAYSCHOOL,41.97224139,-87.69105635,6,2,1,0,0
2443314,BENJYEHUDA,41.88199434,-87.63975868,2.5,2,1,0,0
2578523,LOS ENCINOS RESTAURANT,41.96776279,-87.7772019,8,1,1,0,0
2631727,PORTOS PERI PERI,41.86921805,-87.66241482,6,2,1,0,0
2477302,PT FITNESS LLC,41.88155881,-87.64133123,3.5,2,2,0,0
1875357,CHICAGO PITA KITCHEN,41.65491155,-87.55408109,3,1,1,0,0
2288900,FOREVER YOGURT,41.86939894,-87.6648343,6.5,2,2,0,0
10940,FAIRPLAY FINER FOOD,41.85198384,-87.6857857,1,1,1,0,0
2458442,SUPER TAQUERIA EL TACONAZO EL TIO,41.92451795,-87.71500694,15,3,1,0,0
2483311,EL  AZTECA,41.92405911,-87.751728,6.666666667,3,1,1,2
2621643,ALEX'S GROCERY,41.77809971,-87.76496467,2,1,1,0,0
2411072,"BURRITOS JUAREZ, INC",41.78492213,-87.72278639,12,1,1,0,0
1000894,Galileo's,41.86573231,-87.61966864,1,2,1,0,0
8069,SBARRO'S,41.87146505,-87.66988445,6,1,1,0,0
1740605,SUNSHINE FOODS,41.80831505,-87.68541556,5,1,1,0,0
2008835,HIGH DIVE,41.89603793,-87.67606494,15.5,2,1,0,0
2630971,LA MICHOACANA,41.93899745,-87.74241737,8,1,1,0,0
2636662,LA FUENTE RESTAURANT,41.78617397,-87.71487272,11.5,2,2,0,0
1044752,COCHIAROS PIZZA #2,41.92414063,-87.74552934,7.5,4,2,0,0
1492163,WORLD FRESH MARKET,41.99781793,-87.69125189,9,2,1,0,0
2469320,FIGO WINE BAR,41.94017688,-87.65396764,6,3,1,0,0
2665239,WHISPERS,41.90090767,-87.6240265,4.666666667,3,1,0,0
2245702,ROSATIS PIZZA,41.86427438,-87.64668907,9,1,1,0,0
2451378,FLACO'S TACOS,41.99467731,-87.65903118,2.5,4,1,0,0
2197093,Subway,41.90304578,-87.7188893,1.333333333,3,1,0,0
2099425,SUBWAY,41.80778739,-87.70381745,6.666666667,3,1,2,2
2683923,IDOF FRESH MEDITERRANEAN,41.88044791,-87.64183898,2,1,1,1,1
83345,MILLENNIUM KNICKERBOCKER HOTEL-NIX,41.89991467,-87.62305951,6.25,4,2,2,1
2404914,WRIGLEYVILLE ROOFTOPS,41.94778338,-87.65419934,4,1,1,0,0
2550818,THE LEARNING CIRCLE,41.77868468,-87.72968092,4,1,1,0,0
1479959,CITY FRESH MARKET,41.99727847,-87.70940736,7.5,2,1,0,0
38805,LOS COMALES #3,41.85791848,-87.66550671,8,2,2,0,0
1997591,SHAWARMA INN,41.98207583,-87.69311745,13,2,2,2,2
2683347,DOLLAR STORE GENERAL,41.75835601,-87.65379595,0,1,1,1,1
2683404,LEVEL UP NUTRITION,41.95871461,-87.70801929,4.333333333,3,2,0,0
2446407,PARK AND FIELD,41.92452948,-87.71414212,13,3,2,0,0
1122619,Wrigleyville Rooftops,41.94850933,-87.65422075,1,1,1,0,0
2326970,DUNKIN DONUTS,41.89654413,-87.68671584,4,1,1,0,0
2157189,BAR PASTORAL,41.9362483,-87.64412091,12,1,1,1,1
2327382,LAKE'S BEST PIZZERIA,41.88391207,-87.69621625,6,1,1,1,1
10399,TRIANO'S PIZZA,41.79226712,-87.79151868,4,1,1,1,1
1968904,KHAN BBQ RESTAURANT,41.99761869,-87.68993948,19,2,1,0,0
2245254,TAQUERIA AMIGO CHINO 2,41.96754537,-87.77701144,8,1,1,0,0
2129846,CARNICERIA GUANAJUATO,41.93122555,-87.77763469,7,2,1,0,0
2120075,CHINESE #1 KITCHEN,41.78707418,-87.70322295,16,1,1,0,0
2684037,MANGO MANGO,41.85360599,-87.63509441,2,1,1,0,0
1958864,THE NEW 400,42.00493638,-87.66101365,9.333333333,3,2,0,0
1574657,DUNKIN DONUTS,41.87146692,-87.66973629,1,1,1,0,0
2665240,WHISPERS,41.90090767,-87.6240265,0,3,1,0,0
1998392,ROCKS NORTHCENTER,41.95692025,-87.68086072,6,1,1,0,0
1954041,SUBWAY,41.94714045,-87.65393422,11,1,1,1,1
2678281,POCHOS,41.83026856,-87.67635307,5.5,2,1,0,0
1802466,PACO'S TACOS 2,41.78309273,-87.72303137,6,1,1,1,1
2512025,OLAF'S CHILD DAYCARE CENTER,42.01237639,-87.68878622,1,1,1,0,0
2621898,POLITAN ROW,41.88337034,-87.65426146,5.333333333,3,2,0,0
2601152,TAQUERIA MICHOACAN,41.77902176,-87.70688981,6,1,1,0,0
12690,JEFF'S RED HOTS,41.95161876,-87.74712077,15,1,1,0,0
2064460,ROKA AKOR/ENOLO WINE BAR,41.89070475,-87.63161066,4.5,2,1,0,0
2658519,LAWRENCE GAS & SUPER MINI MART,41.96805659,-87.73489389,7,1,1,0,0
2488598,WASABI RAMEN,41.91952161,-87.69158716,16,2,1,0,0
2108163,RUK SUSHI N THAI CUISINE,41.96155384,-87.7550994,10,1,1,0,0
2543316,KREATIVE KIDZ ACADEMY VI INC.,41.79421094,-87.6597868,3,2,1,0,0
43079,PEPE'S MEXICAN RESTAURANT,41.77884294,-87.70438274,5.5,2,2,0,0
66197,TAQUERIA EL PALMAR,41.95459185,-87.65496414,9,1,1,0,0
2013410,ENGLEWOOD MARKET,41.78345131,-87.65445295,5,2,2,0,0
1932046,CHICAGO CAFE CATERERS,41.89085551,-87.6683029,7,1,1,0,0
1246771,AVENUE FOOD MART,41.93823738,-87.79776035,2,3,1,0,0
2283297,EL HABANERO,41.92478563,-87.7108253,15.5,2,1,1,1
39845,THE REVELER,41.94332804,-87.67818416,10.66666667,3,2,0,0
2405948,WENDY'S,41.94710069,-87.68841372,3,1,1,0,0
2671731,SUGAR BABY'S CAFE INCORPORATED,41.87340929,-87.69594218,6.5,2,1,0,0
2055074,SALAD HOUSE,41.93993522,-87.64454332,4.5,2,2,0,0
1470,VILLA PALERMO PIZZA,41.99792642,-87.68478486,5.666666667,3,2,0,0
2615723,COFFEE LAB,41.93317721,-87.65936357,5,1,1,0,0
2622213,SOMERIA FOOD MART,41.99766054,-87.70021252,5,2,1,0,0
2320593,DUNKIN DONUTS/BASKIN ROBBINS,42.01909911,-87.67357517,4.333333333,3,2,0,0
78579,JUDI'S SPORTS BAR & GRILL,41.70747,-87.6107665,12,1,1,0,0
2398661,NORTHCENTER LIGHTHOUSE,41.95410572,-87.69329037,2,1,1,0,0
39978,SUPERMERCADO EL GUERO #10 INC,41.82058304,-87.69342617,5.666666667,3,1,0,0
2646382,NORI SUSHI CHICAGO,41.90720855,-87.67228168,6,3,2,2,2
1649503,LAS ISLAS MARIAS,41.9237502,-87.78988086,5.333333333,3,2,0,0
2384973,McDONALD'S,42.00685124,-87.6902606,1.5,2,1,1,1
48870,MC NAMARA'S FOOD & DRINKS,41.95365435,-87.73664589,9.6,5,2,0,0
2663706,D'ANARDO'S PIZZA,41.7775098,-87.78514577,2,3,1,0,0
1647713,"CHARLIE BAGGS, INC",41.92390845,-87.63666317,2.5,2,1,0,0
2652665,WINGSTOP,41.99402794,-87.71352801,3.666666667,3,1,0,0
2470418,1492 CUBAN FUSION INC,41.91015015,-87.69271466,18.75,4,1,1,2
10947,FAIRPLAY FOODS,41.6916792,-87.67977917,7.75,4,1,0,0
2646104,PANDA CHINA,41.95421758,-87.78674724,3,3,1,2,2
1471047,SUBWAY,41.91312967,-87.6528173,5,1,1,0,0
2569252,BIG TONYS,41.92479105,-87.71042044,17.5,2,1,0,0
23619,LUCKY GRILL,41.96199537,-87.75583462,9,1,1,1,1
2074594,OUTPUT BAR AND GRILL,41.8910139,-87.6719848,10,1,1,0,0
2373905,MIKU SUSHI,41.96356636,-87.68541102,10.66666667,3,1,0,0
2452439,FIRESIDE TAVERN AND GRILL,41.98623081,-87.67454136,4.6,5,1,0,0
2354522,DENA KITCHEN,41.92478358,-87.71108669,15,1,1,1,1
1904661,EINSTEIN BROS BAGELS,41.88926953,-87.62973533,5.333333333,3,2,0,0
1766064,SUBWAY,41.78651025,-87.70320844,4,1,1,0,0
2683750,FRUTERIA MARTINEZ,41.78643417,-87.69862775,2,2,1,0,0
1800376,LALICH DELICATESSEN,41.9682906,-87.73337283,9.5,2,1,0,0
2631857,EVA'S CLUB,41.91716843,-87.71714485,7.5,2,2,0,0
2292935,DARK MATTER COFFEE,41.8949973,-87.68697066,3.5,2,2,2,1
2570059,MICKY'S CHICKEN AND FISH,41.87666537,-87.63089036,6,1,1,0,0
2288846,SAKAE,41.93528683,-87.64707247,16.5,2,1,0,0
2021552,Pizzeria Serio,41.93976821,-87.67150548,2,2,2,0,0
1991275,SHOP & SAVE MARKET,41.79601962,-87.75968337,4.5,2,1,1,1
1909010,Lou Malnati's Pizzeria,41.87169869,-87.62737565,3.333333333,3,2,1,1
1596802,MR SALSA,41.96165172,-87.6558299,10,1,1,0,0
2469556,"ALBANY PARK COMMUNITY CENTER,INCORPORATED",41.97401636,-87.71337241,6,1,1,1,1
2677522,MAISON CUISINE,41.8839051,-87.70605925,0.5,2,1,0,0
2303621,SUBWAY,41.91593072,-87.68751558,6,1,1,0,0
2659113,SENOR PAN CAFE,41.92440234,-87.74231826,4.666666667,3,1,0,0
2423280,KING SUPERMARKET,41.8203495,-87.61651411,2,1,1,1,1
2683750,FRUTERIA MARTINEZ,41.78643417,-87.69862775,2,2,2,0,0
64722,DUNKIN DONUTS/BASKIN ROBBINS,41.99609842,-87.78687691,4.5,2,1,0,0
2670820,SENOR PAN CAFE,41.92440234,-87.74231826,0,2,1,0,0
2432567,CAFE EL TAPATIO,41.94343231,-87.66891276,18.5,2,1,0,0
1446770,5077 KIKO MEAT MARKET,41.97387159,-87.69178984,13,1,1,0,0
2670630,FRESH MARKET ON JEFFERY,41.72085348,-87.57517214,4,3,1,0,0
2152343,SPOON THAI CUISINE,41.96517023,-87.68894969,10.5,2,1,0,0
2261756,LA FUENTA RESTAURANTE #2,41.78644599,-87.69799211,12,1,1,0,0
2374778,COCOA + CO,41.91262714,-87.63460884,3,1,1,0,0
2517730,WINGSTOP,41.7798268,-87.64690262,6,1,1,0,0
2321003,CHALK PRESCHOOL,41.93339147,-87.66008188,4,1,1,0,0
2637101,LOURS BAKERY CAFE,41.86943238,-87.66273256,5,1,1,0,0
2511248,FAIRGROUNDS,41.91079266,-87.67833061,11,2,1,0,0
2548699,LICKING,41.88030583,-87.75171718,7,1,1,1,1
2068996,SUBWAY,41.96851446,-87.71288467,9,2,1,0,0
2452122,Cooked Chicago,41.92845408,-87.74661563,3.8,5,1,0,0
2677704,BIG SHOULDERS COFFEE,41.87779165,-87.63652434,0,1,1,0,0
2627034,HOM MALI,41.91099475,-87.63927456,0.5,2,1,0,0
2511889,MUNDO SALUDABLE,41.98497175,-87.66970922,1,1,1,1,1
2677831,MOLLY'S CUPCAKES,41.86775147,-87.62597953,4.666666667,3,1,0,0
