license_,aka_name,latitude,longitude,avg_violations,times_inspected
2002822.0,SALAM RESTAURANT,41.965719017423005,-87.70853756167853,7.166666666666667,6
2694960.0,TAQUERIA EL DORADO,41.968819723568394,-87.6822915036914,8.5,2
2215799.0,GADS HILL CHILD CARE CENTER,41.86227322567486,-87.69270319111261,3.0,1
1909364.0,DUNKIN DONUTS/BASKIN ROBBINS,41.766871449399645,-87.72231683922517,9.0,2
2689437.0,FULLERTON DOLLAR PLUS,41.92399088776833,-87.75651914111288,2.0,2
1985220.0,RHYME OR REASON,41.90331444109649,-87.6764167191003,6.25,4
2215757.0,HOPE CHILD DEVELOPMENT CENTER,41.896679619009724,-87.77249925688668,0.0,1
23562.0,HEALTHCARE ALTERNATIVE SYSTEMS,41.91707339369025,-87.70193043997543,5.0,3
2215988.0,GRANNY'S DAYCARE CENTER,41.677862591235005,-87.6274010069214,4.5,2
2665084.0,PHODEGA,41.91021895234461,-87.66753453748353,8.0,1
2698301.0,EGG HARBOR CAFE,41.89108594171936,-87.621703811899,3.0,1
2215555.0,LITTLE LEARNERS DAYCARE,41.778117574741486,-87.76891206328479,2.0,1
2215965.0,"ALL THINGS ARE POSSIBLE FOR KIDS, INC.",41.89546788877342,-87.7266648149535,3.0,1
15956.0,FIREWATER SALOON MOUNT GREENWOOD,41.691406189233774,-87.71830607808162,8.25,4
1198178.0,FLOYD'S PUB,41.917458568356686,-87.6851026411648,8.0,3
2694477.0,LAO PENG YOU,41.896004699879654,-87.6779378973854,5.0,3
2363029.0,ARBOR,41.93202492010381,-87.69216904438716,10.0,2
2678198.0,BOMBASTIC CAFE,41.94988264936109,-87.6642417785868,1.0,1
2698310.0,THE NEW GRACE RESTAURANT,41.96210413223745,-87.65520382960334,0.0,1
2694525.0,JORDAN DISCOUNT,41.88045497430518,-87.75728976536573,1.5,2
2464263.0,BIG & LITTLE'S RESTAURANT,41.92487124318117,-87.70243665907269,12.0,3
20841.0,NORTHSIDE BAR AND GRILL,41.91151626874877,-87.67734069528592,13.5,2
11172.0,MAX'S TAKE OUT,41.87960812540506,-87.6269991129734,8.0,1
2437144.0,FURIOUS SPOON,41.92491617021063,-87.70086165911447,14.0,1
2517136.0,CHOI'S CHINESE RESTAURANT,41.929670220351134,-87.70862407382609,4.0,1
2092884.0,DANTE'S PIZZA,41.91753915867679,-87.70372788811352,6.0,1
2693885.0,CERMAK PRODUCE,41.931639692058404,-87.74687268445575,5.333333333333333,3
1947515.0,ARGO TEA  (T3 ROTUNDA),42.008536400868735,-87.91442843927047,4.4,5
1979165.0,RENO,41.929110009263226,-87.70723899728986,7.0,1
2247067.0,LA ESCUELITA NUMERO DOS,41.93194853574754,-87.7025803277778,11.0,1
61757.0,HARMONY RESTAURANT,41.792163848654795,-87.78540566160221,6.8,5
2616833.0,PRETTY COOL ICE CREAM,41.92436282156778,-87.69725539567338,1.0,1
2215941.0,LITTLE GENIUS COMMUNITY DAYCARE CENTER,41.6859617303021,-87.62068048526466,2.0,1
2694702.0,LA PALAPITA,41.80802515275297,-87.72003743037237,0.5,2
2027142.0,SUSHI PARA  M,41.91115346303384,-87.67843965041517,12.0,1
2216009.0,SERENDIPITY CHILDCARE,41.7141680989703,-87.65529116028439,1.5,2
2631346.0,TAQUERIA LA CIUDAD,41.85164288650078,-87.7064081112397,0.0,1
2463130.0,CHINA FAST WOK,41.91810712421967,-87.69736529538596,5.0,1
2683657.0,AVLI RIVER NORTH,41.89483049188808,-87.63430053853016,0.75,4
1717867.0,TONY'S FINER FOODS,41.92449009399758,-87.71728813097901,2.0,1
2698316.0,EL SABOR LA MICHOACANITA,41.96168070694175,-87.75556296236267,5.0,1
2442931.0,GIANT,41.91728802065993,-87.70737270122645,0.0,1
2583309.0,LAS ASADAS MEXICAN GRILL,41.80802515275297,-87.72003743037237,2.0,2
2589655.0,YOLK TEST KITCHEN,41.9135877900482,-87.68220283542529,4.0,1
2492365.0,DO EAT,41.836871979178554,-87.64610208451234,1.3333333333333333,3
2694744.0,MEXI-TACOS,41.85045102427,-87.65879785567869,2.5,2
2608053.0,DEL TORO,41.85323373038085,-87.64636414528013,0.0,2
22758.0,IRAZU INC,41.9153847273932,-87.68497371798973,12.0,1
2683658.0,AVLI RIVER NORTH,41.89483049188808,-87.63430053853016,0.0,2
2269695.0,GO! COMMISSARY AND WHOLESALE,41.917286920981006,-87.70745338783728,0.0,1
2684723.0,EXTRA VALUE LIQUOR,42.01418398285244,-87.69037834981988,7.0,1
2368562.0,LEARNING THROUGH PLAY CENTER,41.92450052917981,-87.73457439543674,1.0,2
2683659.0,AVLI RIVER NORTH,41.89483049188808,-87.63430053853016,0.0,2
2683821.0,HIMALAYAN SHERPA KITCHEN,41.968442053562335,-87.69630357897282,0.0,1
2694819.0,JERSEY MIKE'S,41.878531278353606,-87.63942745962717,0.0,1
2495920.0,DOMINO'S,41.80178684281061,-87.72355455269386,2.0,1
2690110.0,ROY'S FOOD & LIQUOR,41.902468382006454,-87.7264432559915,8.0,1
2695077.0,DOLLAR TREE,41.92376935343716,-87.78762609897198,4.0,1
2695112.0,#1 CHOP SUEY,41.76113827175918,-87.58634581379175,0.0,1
1898193.0,WALGREENS #10771,41.92376935343716,-87.78762609897198,0.0,1
2689521.0,LA CHAPARRITA,41.85045102427,-87.65879785567869,3.2,5
2428901.0,KREATIVE KIDZ ACADEMY II,41.74468313979549,-87.60519976902937,2.0,1
2060782.0,7-ELEVEN,41.77775753872336,-87.77119396819958,11.0,1
2690112.0,ROY'S FOOD & LIQUOR,41.902468382006454,-87.7264432559915,0.0,1
2698419.0,DUNKIN DONUTS,41.88183546590967,-87.63389738860116,7.0,1
2284259.0,GRAHAM CRACKER'S DAYCARE CENTER INC,41.70020409169573,-87.62106762052937,1.0,1
2684560.0,GOPUFF,41.956845683288854,-87.6743946694658,0.0,1
2138608.0,7 ELEVEN,41.911442870211495,-87.67933447184733,0.0,1
2559800.0,LOVELYLAND LEARNING LAB CORPORATION,41.735771015426245,-87.67222984544962,5.0,1
2616198.0,CRAZY BIRD,41.891193484441246,-87.65705497652716,7.0,2
2517468.0,PJ PIZZA COMPANY 1 DBA PAPA JOHNS,41.73561794613134,-87.66770523498475,0.0,1
2684558.0,GOPUFF,41.956845683288854,-87.6743946694658,8.0,1
2608180.0,TONY'S STEAK & LEMONADE SHRIMP MAX FISH & CHICKEN,41.73561694608059,-87.66778329790542,7.0,1
1647725.0,MAXWELL STREET EXPRESS,41.7360797687383,-87.65085877776568,6.0,1
2670751.0,HIMALAYAN SHERPA KITCHEN,41.968442053562335,-87.69630357897282,9.5,2
2313945.0,THE REDHEAD PIANO BAR,41.893370903547904,-87.62878315259046,2.0,1
2506320.0,CHINA STATION,41.910205129391386,-87.68770229368916,13.0,1
2464411.0,CA PHE DA,41.8579631274509,-87.6533577347641,0.6666666666666666,3
2688817.0,7-ELEVEN,41.911442870211495,-87.67933447184733,9.0,1
2313942.0,THE REDHEAD PIANO BAR,41.893370903547904,-87.62878315259046,0.0,1
2684188.0,CRAZY BIRD,41.891193484441246,-87.65705497652716,0.0,1
2678250.0,47TH ST CANTINA,41.80766199360051,-87.73148027311129,3.0,1
2688816.0,7-ELEVEN,41.911442870211495,-87.67933447184733,0.0,1
2463497.0,Taqueria El Dorado #2,41.96833532113604,-87.70886984436869,10.0,2
2698198.0,DEL REAL BAKERY,41.77912851131161,-87.70005354161087,3.0,1
64537.0,DAIRY QUEEN BRAZER,41.95327478609716,-87.76852367918282,8.0,1
1887316.0,7-ELEVEN # 33731,41.880522170643594,-87.65185446297886,2.0,1
1914060.0,CORTLAND'S GARAGE,41.91597456632108,-87.66962157196225,0.0,1
2391404.0,D'NUEZ RESTAURANT,41.81846434483413,-87.69688003750433,14.0,2
2373940.0,BESPOKE CUISINE,41.884291709535226,-87.66106144338772,4.5,2
2078819.0,MASA AZUL,41.93196913588585,-87.70013311819625,0.0,1
2542346.0,SCHOOL OF SCHOLARS LEARNING CENTER LLC,41.76269757037132,-87.56944314502059,3.0,1
1516501.0,AFC SUSHI @ JEWEL-OSCO #3262,41.95355443840363,-87.74505531119503,3.0,1
2289038.0,DEL REAL BAKERY,41.77912851131161,-87.70005354161087,6.0,2
34220.0,MACARONI GRILL (T3-K2),42.008536400868735,-87.91442843927047,6.4,5
2103985.0,TACO BURRITO KING,41.876697903610385,-87.63354313948199,7.0,1
2378811.0,CAFE MUSTACHE,41.92335589370734,-87.69785017026875,16.0,1
2220945.0,"RAINFOREST LEARNING CENTER, INC",41.93202492010381,-87.69216904438716,2.0,1
2423189.0,IMAGINATION CHILDREN'S ACADEMY,41.88174521304043,-87.65611110962234,1.75,4
2256141.0,ONESTI PIZZERIA INC,41.7644341645427,-87.69279450732276,4.666666666666667,3
2595253.0,ANDHRA DARBAR,41.99789701348497,-87.68658605962811,10.5,2
2437497.0,LAZO'S TACOS,41.91767649798009,-87.68726570179768,21.0,1
1249650.0,SIMPSON BUILDING,41.99740324090077,-87.65829455130034,3.0,1
2694104.0,LIBERTY HOUSE CAFE,41.99551715572943,-87.71283315154739,4.0,1
2215783.0,PATHWAYS TO LEARNING CHILD CARE CENTER INCORP.,41.74989198471621,-87.70801302216435,6.0,2
2215780.0,PATHWAYS TO LEARNING CHILD CARE CENTER,41.749873806501896,-87.70931571203879,4.0,3
64032.0,MCDONALDS  (T3  K9),42.008536400868735,-87.91442843927047,2.0,2
2397985.0,VEGETARIAN EXPRESS,41.96833040315145,-87.67902762942835,7.0,2
2215871.0,VIREVA NURSEY SCHOOL,41.80113414357615,-87.6734440144631,4.0,1
2622951.0,FRIDA'S PIZZA,41.9385394320182,-87.7606308007806,0.0,2
2192934.0,CAPTAIN HOOKS OF DAN RYAN,41.73603017519755,-87.6290945085756,0.0,1
2231765.0,DAMEN DINING,42.00055166015462,-87.66056946651258,15.25,4
2487437.0,STELIO'S,41.881102463653505,-87.65186501694456,2.0,1
24698.0,HAROLD'S CHICKEN SHACK #55,41.73637382027632,-87.62723156456728,5.666666666666667,3
2684364.0,CAMPESINO RESTAURANT,41.968336274546,-87.70878272483317,13.0,1
1592502.0,EL GUANACO,41.931959438085926,-87.72223430061652,8.0,1
53845.0,GEORGIAN BAKERY,41.99766054493654,-87.700212519329,0.0,1
2215781.0,PATHWAYS TO LEARNING,41.74988142522215,-87.70880961533024,3.0,2
2289949.0,BON MANGER CATERING AND EVENTS,41.69183558580081,-87.67109333067165,1.5,2
2215492.0,TOTS N TALES PRE-SCHOOL II,41.79652962537552,-87.75783710916086,0.0,1
51206.0,MCDONALD'S RESTAURANT  (T3 H9),42.008536400868735,-87.91442843927047,2.5,2
12125.0,APOLLO'S 2000,41.85174848380867,-87.69858330280414,1.5,2
2385005.0,CATERPILLAR CARE,41.89592243641311,-87.66978599824554,2.0,1
1770200.0,CHERUBS,41.92497651650806,-87.69116242232869,8.0,2
2500704.0,NINJA,41.95270874577999,-87.76713114902138,10.0,1
2216088.0,LITTLE EINSTEINS DAYCARE,41.92834420497909,-87.7187441443834,3.0,1
2458722.0,CONTE'S PIZZA,41.73811752095403,-87.72169161073629,9.0,2
2496690.0,JENNIVEE'S BAKERY,41.941835666489425,-87.6540188204789,7.0,2
2689327.0,Krispy Kreme Doughnuts,41.88342263701488,-87.62802165207536,0.0,2
2678205.0,CAFE TACUBA CHICAGO,41.96798330540541,-87.74177611404262,5.333333333333333,3
2615574.0,LAS CARNITAS URUAPAN,41.7935704923253,-87.69440453864611,4.0,2
2694699.0,TAQUERIA LAS FLORES,41.975805123578695,-87.7132619526397,2.0,2
2216015.0,THE LITTLE GREEN TREEHOUSE,41.879562663527345,-87.66689803594284,1.0,1
1718674.0,ALHAMBRA PALACE RESTAURANT,41.884327801685764,-87.65845724300314,11.0,2
2204175.0,ALDEN LAKELAND NURSING HOME,41.96924936435865,-87.65110161256266,2.6666666666666665,3
2215951.0,LITTLE SCHOLARS LEARNING CENTER,41.953112724409,-87.78001857406198,3.0,1
2192971.0,BIG BOWL (T5/M7),42.008536400868735,-87.91442843927047,4.666666666666667,3
1225534.0,JEWEL FOOD STORE #3721,41.79435485319725,-87.77052715211342,8.0,2
78427.0,MIRAI SUSHI,41.90328489854517,-87.6781414560568,0.0,2
1145755.0,WENDY'S,41.75466012439374,-87.74138475860521,3.5,2
2694548.0,CHICAGO TAICHI BUBBLE TEA,42.00558686485114,-87.66107732040031,6.0,3
2215782.0,PATHWAYS TO LEARNING CHILD CARE INC.,41.77431077413166,-87.70288250330134,7.0,1
1700.0,LA PERLA TAPATIA #2,41.92465120432787,-87.72194545472854,8.5,2
2379813.0,EL SOMBRERO,41.80933272861339,-87.72349163256884,0.0,3
2694211.0,FALCON FUEL,41.87662240466685,-87.74528678507123,4.0,1
2304306.0,PLAZA FOOD,41.917324793889065,-87.70291213459821,6.5,2
2163848.0,ATOUR FOODS,41.997374684834,-87.68879831778831,5.0,1
2002631.0,La Ciudad Mexican Cafe,41.96413021890814,-87.65462555516851,0.0,1
2590201.0,SUBWAY,41.910398978211525,-87.6902068285586,6.0,4
2359451.0,LITTLE GENIUS COMMUNITY DAYCARE,41.706982259265786,-87.64775773310967,1.0,1
12453.0,EL CAPITAN RESTAURANT,41.91733689553147,-87.72144998707398,0.0,1
1991560.0,NAKWON KOREAN BAKERY,41.96841152989389,-87.72253235108293,7.666666666666667,3
2694387.0,TWISTED TACOS,41.87961077820512,-87.62685551466794,4.333333333333333,3
2506780.0,WILD BLOSSOM II & SOUTH WORKS BREWING CO,41.72982524390322,-87.66701517646968,6.0,1
2542938.0,KOKKU LLC,41.87791559996099,-87.65621646106639,0.0,1
2602146.0,PAN ARTESANAL,41.92467025197142,-87.72044496440567,7.2,5
2205811.0,ST. JOSEPH HOSPITAL,41.93440298707838,-87.63680583708285,0.0,1
1144381.0,ST. JOSEPH HOSPITAL,41.93440298707838,-87.63680583708285,9.0,2
2192963.0,TORTAS FRONTERA (T5/M12),42.008536400868735,-87.91442843927047,5.5,2
2147874.0,CITY'S EDGE BAR & GRILL,41.997435233866156,-87.76125861652775,9.0,1
1842823.0,MON LUNG CHOP SUEY,41.900007499539605,-87.66725382248164,9.5,2
2522428.0,INNJOY,41.90304415750275,-87.67927089988581,7.0,2
2398548.0,BISMILLAH RESTAURANT,41.99778802851346,-87.6928087891628,0.0,1
2476778.0,"11 DINING, LLC",41.8719961299128,-87.63920429168549,6.0,1
2608861.0,BONITA'S RESTAURANT,41.91722351626528,-87.73059969166016,10.0,1
2652587.0,TACO BELL,41.7953624723521,-87.7233692082325,0.6666666666666666,3
2695158.0,DELHI DARBAR,41.99757606083328,-87.70500110804562,0.0,1
2032813.0,CHINESE YUM YUM,41.87783134486316,-87.64764834758425,0.0,1
2683305.0,THE MAIN PIZZA,42.01192482773641,-87.70123045712496,5.666666666666667,3
1800.0,PALERMO'S RESTAURANT,41.77863125454842,-87.71742437604965,7.5,2
1868847.0,PHO VIET,41.97270688665208,-87.6596216050827,7.5,4
2501654.0,ACE HOTEL CHICAGO,41.88712191392366,-87.6520357596219,7.0,1
2488459.0,AVENIDA DEL SABOR,41.931094868682656,-87.77134438272313,6.666666666666667,3
2263696.0,EAST ROOM,41.92387309514714,-87.69916285360124,11.5,2
2141683.0,KRISPY KRUNCHY CHICKEN,41.99083406875133,-87.67677172960916,3.0,2
2506770.0,JELLYBEAN DAYCARE,41.739343208088016,-87.66300791918849,2.0,1
2363763.0,FRONTERA TORTAS BY RICK BAYLESS (T3 K4),42.008536400868735,-87.91442843927047,5.6,5
2215693.0,NEW BEGINNINGS DAY CARE CENTER,41.9093089526564,-87.76221583623584,6.5,2
2120653.0,AU CHEVAL,41.88451545836221,-87.64749730032112,3.0,1
2233239.0,NITECAP COFFEE BAR LLC,41.85784563395503,-87.67028364184357,0.0,1
2464736.0,VIENESTAR FAMILIAR,41.77741992955927,-87.70324865340967,2.5,2
2360056.0,ONE STOP MARKET,41.83032421612542,-87.68518233355891,3.0,2
24612.0,ESTRELLA BLANCA NIGHT CLUB,41.93666807129704,-87.74665459887673,8.0,2
1244983.0,VIA VENETO,41.996470122670104,-87.71750381265241,5.0,1
2694543.0,CHILE TOREADO RESTAURANT,41.83048987325396,-87.6762068763212,7.0,1
2694780.0,SMOKEY'S WING SHACK,41.90284877198458,-87.69306763647268,9.0,1
2308306.0,Mekato's Colombian Bakery,41.98020551980235,-87.6926003777661,6.0,1
2565062.0,ARGO TEA (T3-L Near Lotto and TSA),42.008536400868735,-87.91442843927047,5.0,2
2501799.0,LOS PEKES ICE CREAM & COFFEE SHOP,41.77885533786641,-87.71712584709125,5.5,2
2694356.0,FOODA - 100 N LASALLE,41.88323717511991,-87.63255557700788,2.0,1
1695019.0,URU-SWATI,41.99751643797393,-87.69592211008248,10.0,1
2098691.0,Children of Peace Holy Trinity,41.86926445997663,-87.67381637462078,0.0,1
2516774.0,CAFE HOANG,41.90912535950116,-87.79562029285854,16.5,2
75290.0,BP/SUBWAY,41.852071127711035,-87.67556229949928,1.5,2
2683264.0,SEA & OLIVE,41.90331444109649,-87.6764167191003,0.0,1
1045301.0,BELLY Q/URBAN BELLY II,41.884274448898516,-87.66243302565778,0.0,1
2658057.0,BLINK FITNESS,41.836468347729024,-87.66556690213167,1.0,2
2349196.0,GYU-KAKU RESTAURNAT,41.88428889843475,-87.66127941800869,4.0,1
1959577.0,Jimmy Johns,41.89176977820589,-87.65860461424934,3.0,3
2671261.0,CHARCOAL FLAME,42.00913302441507,-87.6738463824712,9.0,3
2560594.0,OVERTIME BAR AND GRILL,41.938298112741435,-87.7939097072145,0.0,1
2694200.0,DAEBAK KOREAN BBQ,41.85478377573143,-87.63273280957871,0.5,2
2622726.0,LAO SZE CHUAN,41.969958863145955,-87.65984317819886,3.2,5
2013974.0,TACO LULU,41.879163618039705,-87.64264995953803,4.0,3
2588911.0,THE LEARNING EXPERIENCE,41.87743070168073,-87.6571579846684,3.0,2
2684264.0,LA TERRAZA,41.83938905272788,-87.72427111249547,9.0,1
1227983.0,SCHOOLYARD TAVERN & GRILL,41.94153945604474,-87.66401205716195,6.0,2
1588.0,JOHNNY O'S,41.830791780461546,-87.65082245322775,6.5,2
2447171.0,SYMPHONY MIDWAY,41.811989599987115,-87.74312824835363,4.25,4
2694835.0,TAQUERIA DONA BALBIS,42.00678208236227,-87.67359749944175,7.5,2
1331660.0,GUADALAJARA BAKERY,41.91726717672642,-87.72726399727456,7.0,2
2683262.0,SEA & OLIVE,41.90331444109649,-87.6764167191003,0.0,1
2684543.0,LAO SZE CHUAN,41.969958863145955,-87.65984317819886,0.0,1
80875.0,LONGMAN & EAGLE,41.93012611532404,-87.7072308071835,14.0,1
2589629.0,ANTOJOS & SHAKES,41.90284877198458,-87.69306763647268,0.0,1
2215950.0,Little Green Oak,41.93165821480086,-87.78585878124555,0.0,1
2098412.0,QUESADILLA LA REINA DEL SUR INC,41.92271136874486,-87.6874275597316,13.0,1
2398356.0,IRVING HALL,41.95294184356289,-87.77690830975226,0.0,1
27480.0,DOUBLE HAPPINESS,41.97316839903074,-87.65736357565746,5.666666666666667,3
2694198.0,DAEBAK KOREAN BBQ,41.85478377573143,-87.63273280957871,3.0,2
2417985.0,RAYMONDS TACOS # 3,41.92469427172042,-87.71859337650946,11.4,5
2216102.0,PEACHTREE NURSERY AND LEARNING CENTER,41.924424570904954,-87.7225694150954,2.6666666666666665,3
14897.0,POPEYES FAMOUS FRIED CHICKEN,41.88263293865735,-87.686621829305,5.0,3
2517823.0,HOME OF THE HOAGY,41.69231135890114,-87.6552682468684,9.0,4
2360064.0,TANOSHI,41.98309881120602,-87.66852394399493,8.666666666666666,3
2689613.0,LOS ASADORES MEXICAN GRILL,41.97582181741593,-87.71172940864518,2.6666666666666665,3
2247144.0,ORIGINAL MAXWELL STREET GRILL,41.87370411501883,-87.70086461713747,5.333333333333333,3
2098683.0,St Malachy School,41.88314387354198,-87.6836662682564,0.0,1
1118829.0,PIECE,41.910397185945115,-87.6761810963592,0.0,1
12199.0,POPEYES,41.93220539506452,-87.6976792438691,3.0,1
2004600.0,ADRIANS FOOD MARKET,41.93198942290801,-87.71969926512013,4.0,1
2658060.0,BLINK FITNESS,41.79875025743268,-87.72346641018879,2.3333333333333335,3
2517786.0,MARISCOS LA COSTA,41.902539299640786,-87.66761746288638,7.5,2
2021498.0,Jason's Wok,41.86878383901946,-87.68624468790969,6.5,2
2684305.0,JERKY JERK RARE,41.86890766821779,-87.683275390726,2.5,2
1847167.0,GOLDEN THAI,41.86918475349806,-87.66450967311361,6.0,1
2694394.0,K I AFRICAN RESTAURANT,42.01258706150375,-87.67448205374414,3.0,1
1878513.0,IMMACULATE CONCEPTION SCHOOL,41.98671142506543,-87.80905499241214,3.0,2
2177682.0,Red Square,41.903331032063555,-87.67543391800301,10.0,1
1953503.0,SUBWAY RESTAURANT,41.931921464989244,-87.70774190672559,0.0,1
2658207.0,EXOS WORKS,41.88935425192819,-87.62410245624348,1.0,1
2496239.0,LAS PALMAS,41.91042962586729,-87.67394168112114,5.666666666666667,3
2646244.0,GAIJIN JAPANESE RESTAURANT,41.885700767664,-87.65176311854695,0.0,1
1932544.0,JUBRANOS,41.86917813329073,-87.66490728096332,0.0,1
2690324.0,LITTLE LAZO'S,41.917531659094365,-87.68726210292009,8.5,2
2626237.0,KUNG FU WOK RESTAURANT,41.99496878030707,-87.78543707203039,9.0,1
2621807.0,STARBUCKS,41.967671015100265,-87.76759623699382,6.0,1
2256196.0,CROSSTOWN FITNESS,41.881570479100915,-87.65332321194828,7.0,1
2690085.0,"TAISHA BEAUTY WORLD, LLC",41.76511411493335,-87.6442637860046,6.0,4
1045099.0,IHOP,41.93219923769267,-87.69851035446803,2.0,1
2079697.0,ROOTS HANDMADE PIZZA,41.89604490958585,-87.67560484584318,3.5,2
3305837.0,INTRINSIC CHARTER SCHOOL,41.93901560699069,-87.74114753617036,3.3333333333333335,3
1879140.0,PIECE OUT,41.91039968165606,-87.67601118847784,0.0,1
2549769.0,ROWE MIDDLE SCHOOL,41.89987531745774,-87.66383540125675,2.0,1
2626584.0,BLOWFISH CONTEMPORARY SUSHI,41.98352603576393,-87.65931794356672,0.0,1
2064938.0,SILOM12 THAI BUCKTOWN,41.91490097692986,-87.68466742765311,11.0,1
2437229.0,BIRRIERIA ESTILO JALISCO,41.92247227572401,-87.68771380635987,14.0,1
46344.0,I.H.O.P. RESTAURANT,41.95742941661818,-87.74757441604942,7.333333333333333,3
2293604.0,SUPERMARKET LA FAMILIA,41.85035962181883,-87.68326750980562,5.0,1
2464515.0,UNITED CLUB (T1-B6),42.008536400868735,-87.91442843927047,3.0,3
2694859.0,"VILLA VERDE OILS, LLC",41.92631893829656,-87.64076889557035,3.0,1
34154.0,GOOSE ISLAND CHICAGO (T3/L10),42.008536400868735,-87.91442843927047,4.666666666666667,3
1682368.0,THE WINDSOR,41.96315881688357,-87.75684243172473,3.5,2
2026455.0,B & L,41.90341001498685,-87.67029621760888,6.0,1
2476335.0,CHINA PALACE,41.98992502738334,-87.65943957792769,8.0,3
2216138.0,NEW EINSTEINS ACADEMY,41.915434056044376,-87.67771613026184,7.0,1
2215953.0,NEW AGE CHILDREN'S PREPARATORY ACADEMY,41.73185210877984,-87.60485274319225,4.5,2
1904304.0,MCDONALD'S,41.82315834507904,-87.68923664723573,3.0,1
2678063.0,DANANG KITCHEN,41.97319036182206,-87.65575295517391,7.0,1
1645714.0,KOREAN CHICKEN SOUP HOUSE,41.96807525591038,-87.73302714630067,4.0,1
1301621.0,COOPER'S,41.93992587298262,-87.66025188109599,0.0,2
1884293.0,GOLD COAST DOGS  (T3  L4),42.008536400868735,-87.91442843927047,5.666666666666667,3
2522051.0,BLOWFISH CONTEMPORARY SUSHI,41.98352603576393,-87.65931794356672,3.0,1
2385316.0,BLOWFISH CONTEMPORARY SUSHI,41.98352603576393,-87.65931794356672,3.0,2
23811.0,Hitch Elementary School,41.983677555790884,-87.77908614427155,4.0,1
2608555.0,LEARN CHARTER SCHOOL,41.88746153049457,-87.70216140146225,0.0,1
2583208.0,ANGRY PIG TAVERN,41.91034561901541,-87.67906657744264,0.0,1
1490057.0,SUPER CHINA BUFFET,41.928847223323764,-87.78578101920121,4.0,2
2589592.0,CHEFSHAUN'S HUNGRY HIDEOUT,41.74987081545715,-87.68680008233815,0.0,1
2694484.0,FANNIE'S CAFE,41.954142628314095,-87.74875050321968,8.5,2
2630746.0,TAQUERIA MI PUEBLO,41.80100543752876,-87.68661612013953,0.0,1
2636563.0,EMECHE CAKERY & CAFE,41.83131852157684,-87.6204084221969,1.0,3
2694783.0,TANO'S PIZZERIA,41.954050096788976,-87.70472907257313,4.0,1
2528169.0,CAFE VIENNA,41.928487374216466,-87.64204435669477,10.0,2
1878445.0,CYRUS H MCCORMICK ELEMENTARY SCHOOL MODULAR,41.84151128253274,-87.70631315862803,1.0,1
2442830.0,VANILLE,41.94129418083914,-87.64429200618663,9.0,2
1495532.0,ALOHA GRILL HAWAIIAN BBQ INC.,41.92868791566252,-87.6424846713895,9.333333333333334,3
2583537.0,SPEEDY CONVENIENT,41.779005045901684,-87.69345011858015,6.0,2
2263123.0,BRAIN BOX LEARNING ACADEMY INC.,41.74988156760434,-87.68610812399969,2.0,1
2694639.0,LA CECINA RESTAURANT,41.808630431592775,-87.6736189301899,0.0,1
17732.0,BETTY'S ICECREAM,41.78684434610169,-87.70350999751716,10.0,2
1473123.0,DUNKIN DONUTS/BASKIN ROBBINS,41.86464672961594,-87.68600251219546,2.0,1
1939047.0,THE SHRIMP SHACK,41.792138942200104,-87.78674847587374,3.0,2
2664063.0,ANTHONY'S DINER,41.945225909077436,-87.81607437620298,2.0,4
6414.0,FRANK'S CHICAGO SHRIMP HOUSE,41.81218105206548,-87.70712481334274,6.0,1
2215972.0,THE LEARNING TREE ll,41.74299303153854,-87.72155821260196,4.0,2
2534843.0,THE PARTY ROOM,41.70767490603119,-87.65584840757958,1.5,2
1953463.0,GEMINI BISTRO,41.92005753669409,-87.64101934425842,0.0,1
2694378.0,MINI MART,41.75131088757514,-87.59412351895506,12.0,1
1622034.0,STANLEY'S GRILL,41.9102628778286,-87.66170856673062,18.0,1
2163012.0,SUBWAY,41.98996531393315,-87.73343294255409,9.0,1
2278386.0,JOHNNY'S BEEF & GYROS,41.923624465909924,-87.64642729029046,4.0,1
1984952.0,Millie's,41.935865854231174,-87.67433853837197,0.0,1
2664805.0,NEVERIA Y FRUTERIA MI LINDA MICHOACANA,41.786530774401776,-87.69277691398389,3.5,2
32188.0,CHRIS'S BAKERY,41.81918639555068,-87.69959542179552,0.0,1
2690341.0,CHEW ON THIS,41.945225909077436,-87.81607437620298,11.0,1
26381.0,WESCOTT ELEMENTARY SCHOOL,41.74884017917292,-87.63478948576498,4.0,1
24431.0,CYRUS H MCCORMICK ELEMENTARY SCHOOL & MOBILE UNIT,41.842245084273074,-87.70633600204509,3.0,1
2694775.0,PASTEL ! INC.,41.805546862502226,-87.72366059426938,0.0,1
2369187.0,CHANCE AFTER CHANCE MINISTRY,41.88555252759883,-87.74531277707483,1.5,2
2458839.0,TUCO & BLONDIE,41.94330695630928,-87.66406138245193,9.5,2
2368805.0,BURGER KING #11967,41.86464672961594,-87.68600251219546,1.0,1
2333459.0,LOU MALNATI'S PIZZERIA,41.88411357669396,-87.6580816735995,3.0,1
6475.0,ALBERTO'S PIZZA,42.00803844718281,-87.66481711901136,4.5,2
1717568.0,TONY'S FINER FOODS,41.92589288021343,-87.76620482583799,1.8,5
2671722.0,MCDONALDï¿½S 28128,41.87971889634663,-87.62628114547579,1.3333333333333333,6
64391.0,BROOKDALE LAKE VIEW,41.93840419420947,-87.63934305672306,3.6666666666666665,3
37212.0,GALLERIA MARCHETTI,41.89324923448882,-87.64879205703046,2.0,2
39301.0,GALE STREET INN,41.97001167825235,-87.76279618588528,8.0,1
2225421.0,RACINE APARTMENT,41.85940964943519,-87.65632117933843,1.0,1
2216029.0,CREME DE LA CREME,41.92222025546027,-87.66710345390526,7.0,1
1545880.0,PIZZA-METRO,41.90319053056459,-87.67029008677447,7.5,2
2528930.0,COOK COUNTY COURTHOUSE CAFETERIA,41.842995989592936,-87.69530930572087,0.0,1
2093760.0,ESTRELLA BLANCA,41.93666807129704,-87.74665459887673,0.0,1
2446275.0,RESTAURANTE Y TAMALERIA LA BENDICION,41.92809931574407,-87.74630655430202,4.5,2
2616696.0,JACKIE'S MEXICAN CUISINE,41.83598843774932,-87.64608160187807,0.0,2
2321181.0,YINKRES NIGERIAN RESTAURANT,42.00853953880006,-87.69050051086757,5.0,2
2380171.0,WEST TOWN WINE & SPIRITS,41.91018381958202,-87.68972702379838,12.333333333333334,3
1981283.0,Norwood Park Senior Center,41.9866294022939,-87.79402077531115,3.0,1
2694080.0,FOODA - 200 S MICHIGAN,41.87948932869769,-87.6244981249339,0.0,1
2284694.0,PAULINES,41.92512768539323,-87.66204067083224,8.0,2
3076641.0,ST. JOHN FISHER,41.708040174736645,-87.68922181143849,6.0,3
2647723.0,CVS/PHARMACY #11376,41.885670730222465,-87.65345429840177,1.0,1
2664783.0,FOODA,41.896585191199556,-87.64299618172501,0.0,2
2551207.0,63RD FOOD MART,41.778896937925,-87.70075757526037,6.5,2
2094234.0,BP GAS STATION,41.77527445745754,-87.70319733305737,11.5,2
2215863.0,CHANNINGS CHILDCARE & DEVELOPMENT,41.90199710113715,-87.76813962593948,1.0,1
2074472.0,CUBBY BEAR LOUNGE,41.947085343828114,-87.65663783493278,12.0,3
2313741.0,MR. FALAFEL,41.9977637602161,-87.69979572191909,3.0,1
7214.0,ZACATECAS RESTAURANT,41.931336553380994,-87.75299705381228,11.0,2
52447.0,NOVA PIZZA,41.78629925284164,-87.72282652764042,4.5,2
2134033.0,DONA CHELA RESTAURANT,41.850399240651626,-87.68057158857074,0.0,1
2142655.0,ST BARNABAS ELEMENTARY,41.70961494964804,-87.669573614441,3.6666666666666665,3
2602169.0,SIRI INDIAN RESTAURANT,41.86939628798951,-87.66499334444555,10.0,2
1878516.0,RESURRECTION HIGH SCHOOL,41.98946579936816,-87.81421066629487,2.0,1
2684579.0,UNCLE JOES JERK CHICKEN,41.73603017519755,-87.6290945085756,4.0,1
2031732.0,ANTICO,41.91755731772555,-87.68266439539492,0.0,2
2689955.0,"FOODA,INC",41.88001342713154,-87.63657238450709,3.0,1
2068942.0,PASTEUR,41.982514139614246,-87.6598903528276,0.0,2
12465.0,THE CHG BEAR SPORTS BAR/GRILL,41.77704743481711,-87.76153944156653,4.0,1
2342387.0,"MUNCHIES FOOD MART, INC",41.69230592090601,-87.65564608116505,0.0,1
2017847.0,QDOBA MEXICAN GRILL,41.93253117623138,-87.65370947965262,2.25,4
2205096.0,SHERIDAN SHORES CARE & REHAB,41.988468090343,-87.65548501249852,3.0,1
2354352.0,TARBOUSH MEDITERRANEAN GRILL,41.9107340942111,-87.66809336341993,16.0,1
3616.0,SUPERDAWG DRIVE-IN,41.996608859821066,-87.78699944881153,4.0,1
1409.0,JEWEL FOOD STORES #3262,41.95355443840363,-87.74505531119503,6.0,1
2608949.0,LITTLE EXPLORERS LEARNING ACADEMY INC.,41.79233314231487,-87.78814644431729,5.0,1
1044796.0,CASEY MORAN,41.94873596654509,-87.65792288913369,0.0,1
2304398.0,JIMMY JOHNS,41.92172346276781,-87.66476304489882,3.0,1
2664784.0,FOODA,41.89141810118847,-87.62791475607904,0.0,2
19444.0,RAW BAR & GRILL,41.94953364110842,-87.6585612230964,0.0,1
2542078.0,MCDONALD'S,41.9706775856096,-87.76342894418006,1.5,2
2172561.0,POPEYE'S CHICKEN,41.844733938666195,-87.69536306670871,2.0,1
2647725.0,CVS/PHARMACY #11376,41.885670730222465,-87.65345429840177,0.0,1
2469259.0,JADE COURT CHINESE RESTAURANT,41.87352003005835,-87.65696051450144,0.0,1
2363573.0,5411 EMPANADAS,41.90319824225925,-87.66979533648627,7.0,1
15042.0,STANLEY'S,41.910574669649414,-87.66223522940446,0.0,1
2423919.0,EL RUISENOR AZUL ACADEMY,42.008917729121045,-87.69031635620705,1.0,1
2496843.0,STROGER CAFE,41.8732169991148,-87.67567517654017,7.5,2
2391864.0,"MASA UNO, INC.",41.84613138296962,-87.71469152839872,0.0,1
3759765.0,LAZARO CARDENAS,41.845442959859945,-87.71496351888159,1.0,1
2551070.0,FRUITERIA FAVELA,41.78621896335036,-87.69840666972154,10.5,2
2020893.0,TAQUERIA LOS COMALES #11,41.920182838435146,-87.69313904053791,19.0,2
24771.0,Oriole Park Elementary,41.97851501220151,-87.81209056901324,1.0,1
2293443.0,GUATALINDA BAKERY,41.931918850917825,-87.7069694880478,7.0,1
1595894.0,JUPITER COFFEE,41.88657732519364,-87.65599106599095,0.0,1
2664066.0,OGIE'S FOOD MART,41.768365835791016,-87.68830090772079,2.0,1
2320537.0,TACO BELL,41.928669020585914,-87.67377920462141,5.0,1
2694759.0,TWO HEARTED QUEEN,41.94550365331064,-87.64957851411022,0.0,1
2664068.0,OGIE'S FOOD MART,41.768365835791016,-87.68830090772079,5.0,1
1119292.0,RUSH BARTON SENIOR RESIDENCE OF CHICAGO,41.86539785619372,-87.6711622194772,1.0,1
2038643.0,WEST TOWN LOGAN SQUARE,41.89595485127916,-87.66782142181796,3.0,2
2358907.0,PIZZERIA DEL MERCATO,41.88678769586561,-87.65669394874121,0.0,1
2134794.0,SUBWAY,41.99165185328709,-87.79809695431013,6.0,2
2528928.0,ILLINOIS CENTER FOR REHABILITATION AND EDUCATION-R,41.86687083903884,-87.67581337836772,3.0,1
2574871.0,POKE POKE,41.94008901097665,-87.64939125456559,7.25,4
2684266.0,HARPER FOODS,41.79141056942301,-87.58953262777803,0.0,1
2631060.0,EL RUISENOR Y EL SOL ACADEMY,42.01199672810523,-87.69807412113414,0.5,2
2373769.0,PASTELITO BAKERY,42.01258706150375,-87.67448205374414,0.0,1
2247234.0,"THE GREEN BEAN NURSERY,LLC",41.92165672859489,-87.67277990366233,2.0,1
2253821.0,COOK AU VIN,41.92250793561497,-87.67400666675302,14.0,1
2608249.0,BALLAST POINT BREWING COMPANY,41.88608349179427,-87.6488012338551,2.0,1
7212.0,NOOKIES TREE,41.94281448841558,-87.64950812514198,0.0,1
2601801.0,QUEENIE'S,41.881241456803345,-87.67428253395332,1.0,1
1898331.0,JAIPUR,41.88426636711742,-87.64927146811964,0.0,1
2179116.0,SUNNY SIDE UP,41.89581257468186,-87.62658902428436,15.0,1
0.0,DORE EARLY CHILDHOOD CENTER,41.78092716332793,-87.78764008652699,4.821428571428571,28
1968904.0,KHAN BBQ RESTAURANT,41.997618688841094,-87.6899394819467,17.666666666666668,3
2308390.0,LE PAIN QUOTIDIEN,41.88431283109331,-87.64112326659475,6.666666666666667,3
2078906.0,BEEZEE,41.87635126679324,-87.62618919572564,7.666666666666667,3
2574559.0,MARTHA'S GRILL,41.93152198835163,-87.73910663902876,4.0,3
2609033.0,BLUE SPOT SUSHI CORP.,41.884187507127805,-87.64111966683218,2.0,2
2307748.0,MARIANO'S #8527 UKRANIAN VILLAGE,41.89578522959797,-87.67793089259229,6.666666666666667,3
2689253.0,RAGGA'S KITCHEN,41.89231802030073,-87.74556872149367,2.0,2
17145.0,LIDO BANQUETS,41.98174513647886,-87.7734651611067,4.0,2
2262309.0,DUSEKS,41.8578278479898,-87.65741657223244,2.0,1
2601796.0,LEVY PREMIUM FOOD SERVICE LIMITED PARTNERSHIP,41.881241456803345,-87.67428253395332,8.0,1
2694054.0,JAMAICAN GATES,41.80189905551875,-87.62210882249305,3.0,2
2550872.0,BALLAST POINT BREWING COMPANY,41.88608349179427,-87.6488012338551,4.0,1
2671047.0,TRADER JOE'S  #706,41.79530095908683,-87.58819708928063,0.0,2
2671045.0,TRADER JOE'S  #706,41.79530095908683,-87.58819708928063,4.0,2
2492693.0,Groundswell,41.97209297588227,-87.69095826336621,5.5,2
2590113.0,ELEVEN ELEVEN,41.885426604527154,-87.65496569400409,0.0,1
2658673.0,LOU MALNATI'S,41.8898747912625,-87.62425976144404,0.0,1
1794.0,"THREE SONS RESTAURANT, INC.",41.79394204830804,-87.7746332149459,11.0,2
2215810.0,LITTLE HANDS LEARNING CENTER,41.69189741625341,-87.67985620594332,5.0,2
1889078.0,SARPINO'S PIZZERIA,41.9324618093209,-87.65783274822834,19.0,1
2511062.0,ETTA,41.9106455744334,-87.67420058686105,0.0,1
2583411.0,Independence Tap,41.95377450976464,-87.7264587067583,5.5,2
2534914.0,PEKING CHINESE FOOD,41.93981400524677,-87.64911458899103,7.0,2
2551253.0,SWEETGREEN,41.88443496492766,-87.6521655467081,4.0,1
2476639.0,THE NOOK DAYCARE 2,41.91759034959313,-87.68036365492082,16.0,1
31190.0,LOTTIE'S PUB,41.915854880451626,-87.6762179092616,3.3333333333333335,3
2204190.0,ST MARTHA MANOR,41.966028256104345,-87.65948891335907,3.0,1
2443436.0,BLACKWOOD BBQ,41.94002651682731,-87.65388932385707,0.0,1
28299.0,THE FRONTIER,41.90128364339324,-87.66348362488465,1.3333333333333333,3
2693894.0,HAROLD'S CHICKEN #88,41.86267891211433,-87.62419160244413,0.0,1
1515134.0,CHINA KITCHEN,41.97594611753842,-87.6777257457355,18.0,1
2652791.0,SHU TIN XIA,41.84838625123219,-87.64196007758322,0.0,2
2689913.0,SUNRISE CHILDCARE CENTER,41.93125457530124,-87.75922205624983,0.0,1
2451495.0,OVER RICE'N BREAD,41.944579972002636,-87.65410165350893,19.0,1
45274.0,FRAN'S BEEF,41.854572220124695,-87.66378596101777,5.0,1
2689023.0,HAPPY MART,41.85205082671266,-87.63287403404587,5.5,2
2215719.0,FRESH START DAYCARE,41.90909072583769,-87.79816372279038,5.0,3
2289027.0,LE'S PHO,41.97221355699091,-87.6596091001073,7.0,1
2636475.0,SHINWARI GRILL,41.997592986097196,-87.7040346324575,7.0,1
2363771.0,ICE BAR (T3 L2),42.008536400868735,-87.91442843927047,4.0,2
2021937.0,WH,41.90837835089753,-87.67456920778488,2.0,1
2021538.0,MANJARES AL EXPRESS,41.851397799712196,-87.66616621226514,8.0,3
2350236.0,HALSTED STREET DELI,41.892274965646884,-87.62009879454878,8.0,1
2694306.0,UNITED CENTER MARKET & GRILL,41.88319447242824,-87.68046649021605,5.0,1
2694041.0,FRESH STOP PRODUCE AND MARKET,41.94003989685005,-87.65275587880035,0.0,1
1578762.0,SMAKTAK,41.989722790320926,-87.77717307629189,0.0,1
2320019.0,WHOLE FOODS MARKET,41.88181563164203,-87.64721471704077,2.0,2
2419012.0,"PARK VIEW REHAB CENTER, LLC",41.9887703328086,-87.66870042341854,5.0,1
2279384.0,SUNRISE CHILDCARE CENTER,41.93125457530124,-87.75922205624983,0.0,1
2204335.0,GRASMERE PLACE,41.96600833402895,-87.65464367873378,4.0,2
2658672.0,LOU MALNATI'S,41.8898747912625,-87.62425976144404,0.5,2
1492287.0,AY  AY PICANTE,41.96400775372126,-87.73395032409566,9.5,2
2694275.0,CAFE BONNE SANTE,41.92230468172916,-87.64850216798372,2.5,2
1676601.0,WHITE CASTLE #24,41.749014401931134,-87.72204098184092,1.5,2
2243645.0,PILSEN SENIOR CENTER,41.85461475854118,-87.65132209218405,1.0,1
1576613.0,Emerald Isle,42.0023773668331,-87.81574842158678,7.0,1
2574892.0,SHU TIN XIA,41.84838625123219,-87.64196007758322,7.0,2
71095.0,WINDY CITY GYROS,41.95371591865941,-87.65014628741659,9.0,3
1884050.0,SHOKRAN,41.95353192936301,-87.72833818191091,4.666666666666667,3
2684853.0,CAMPUS MARKET,41.869175484822186,-87.66506632408525,2.3333333333333335,3
2458356.0,SOUL CRAB CHICAGO,41.915930717290145,-87.68751557795045,14.6,5
2216072.0,BRIGHT HORIZONS AT RIVER EAST,41.89171247365978,-87.61915237313015,2.0,2
46201.0,KENNEDY HS,41.7904279580333,-87.78037223622844,3.0,5
2583408.0,Independence Tap,41.95377450976464,-87.7264587067583,0.0,2
2271537.0,THE MIDWAY CLUB,41.89011149652908,-87.6221038750602,7.0,1
47061.0,Nicholas Senn High School,41.989050628507,-87.66526222088731,2.6666666666666665,3
3428087.0,BEVERLY MONTESSORI SCHOOL,41.71334157464564,-87.66782942584904,2.0,1
1818974.0,CENTER ON HALSTED,41.94896619671428,-87.64968333043412,2.5,2
2102656.0,MONTROSE BAPTIST CHURCH,41.96060114246313,-87.78176907226297,1.0,1
1384276.0,COZY NOODLES & RICE,41.94510810433101,-87.65441181641037,4.0,2
1937955.0,ROCKIT BAR & GRILL,41.949010883298726,-87.65814287476813,0.0,1
1678885.0,NEW ORLEANS KITCHEN,41.88458626715456,-87.63101044588599,9.0,1
2510896.0,LEVY AT AMERICAN AIRLINES CONFERENCE CENTER,41.948894492280026,-87.65681760203104,0.0,1
2215489.0,"MONTESSORI ACADEMY & ASSOC., INC.",41.693580294451586,-87.64227024019462,4.0,3
2304769.0,TAYLOR TOTS DAY CARE LTD,41.869219246745565,-87.6623354074544,4.0,1
2476127.0,THE DARLING,41.88425670381661,-87.64982670264364,3.0,1
2516647.0,AMERICAN AIRLINES (T3-H/K),42.008536400868735,-87.91442843927047,7.5,2
2522290.0,KITCHFIX (PRESS BOX ANNEX),41.948894492280026,-87.65681760203104,0.0,1
2551944.0,KIDDIE CITY KOLLEGE ACADEMY LLC,42.00706557171796,-87.68087359576798,3.0,1
1649280.0,CORNER BAKERY CAFE,41.89485296136011,-87.62290180042824,5.0,1
2284294.0,AMERICAN AIRLINES (T3-G8),42.008536400868735,-87.91442843927047,4.0,2
50551.0,ZACATACOS,41.78507649032044,-87.72279064865629,8.25,4
2683425.0,FOODA - COOK COUNTY,41.88370017254781,-87.63106512309899,0.0,1
48081.0,CARNICERIA JIMENEZ #2,41.92462832053318,-87.72395332098408,12.5,2
2677226.0,FOODA - 303 E WACKER,41.88770537937826,-87.62058814392799,0.0,1
1802415.0,BERNIE'S,41.948843780887984,-87.65800926199522,15.0,1
1841808.0,JESSICA'S BAKERY NO 2 INC,41.76539837042685,-87.72228675266516,14.0,1
2551672.0,KIDS + COMPANY,41.8778102002359,-87.64902370821919,0.0,1
2240045.0,PETE'S PIZZA #2,41.960284231502094,-87.77396125248593,2.5,2
2216135.0,THE LITTLE SCHOLARS CLUB,41.78798915982268,-87.72316081027732,2.0,1
2451559.0,LEARNING EXPRESS CHILD CARE,41.99697539188323,-87.82099583645142,5.0,1
2664788.0,FOODA - 111 N CANAL,41.88356531275924,-87.63963728368087,0.0,1
2196808.0,MARISCOS LA PALMA,41.782967133217156,-87.72302765304839,5.333333333333333,3
2432037.0,METROPOLITAN FAMILY SERVICES,41.94024127761025,-87.76641116844013,2.0,1
2428838.0,CAFE MARIE-JEANNE,41.899330918472295,-87.69664492473737,10.25,4
1622713.0,MARGIES CANDIES,41.96140069226438,-87.67498750263746,6.5,2
2068944.0,TAQUERIA SAN JUANITO,41.967114771432584,-87.70857709253173,5.5,2
2294203.0,CELLAR DOOR PROVISIONS,41.93194409993535,-87.70360323628218,10.333333333333334,3
2464526.0,UNITED CLUB (T2/F9),42.008536400868735,-87.91442843927047,2.3333333333333335,3
2694076.0,FOODA - THOMPSON CENTER,41.88458626715456,-87.63101044588599,1.0,1
2404599.0,ROISTER,41.886634054028065,-87.65184962977254,0.0,1
64050.0,TACO BELL #2513,41.79218559796885,-87.79580846844716,4.0,1
2245628.0,MARY CRANE LEAGUE,41.934280416256804,-87.68290782429251,1.6666666666666667,3
2215939.0,KIDDIE KORRAL ACADEMY,41.894872435106244,-87.77179591291225,0.0,1
2670714.0,FOODA - 121 W WACKER,41.88670659265085,-87.63162996998051,0.0,1
2390627.0,SWIFT & SONS/COLD STORAGE,41.886848295491134,-87.65223416110463,1.0,1
2064114.0,KABUKI RESTAURANT,41.927477726852224,-87.64144977590252,0.0,1
2206262.0,KINDRED CHICAGO-CENTRAL HOSPITAL,41.94008298285754,-87.72954609719962,0.0,1
1992471.0,NICK JR.'S GRILL,41.90910578560824,-87.7970900667382,7.0,2
56711.0,NONNO PINO,42.00310350668988,-87.816894255915,6.0,1
2694611.0,DOMINO'S PIZZA,41.8910754076385,-87.63687267718794,0.0,1
33011.0,FLAMINGO CAFE,41.79456474995328,-87.76914449094998,0.0,1
1904569.0,ARAMARK NUVEEN INVESTMENTS CAFE,41.886025412541144,-87.63629770323044,0.0,1
2594670.0,ROTI MODERN MEDITERRANEAN,41.88442576290219,-87.65268988514183,6.0,2
2664785.0,FOODA - 29 E MADISON,41.881965330252534,-87.62679322159418,0.0,1
2147200.0,MARKET THYME,41.8846320757672,-87.6222479910888,13.0,1
2542230.0,ATOLITO CATERING,41.962596548691735,-87.65551767517252,11.5,2
1169962.0,KINDRED CHICAGO-CENTRAL HOSPITAL,41.94008298285754,-87.72954609719962,10.0,1
2405954.0,WENDY'S,41.93915237354105,-87.73125116042982,9.5,4
2671128.0,ENGLEWOOD MARKET,41.78345130683472,-87.65445294657616,1.5,2
2129721.0,EPIC BURGER,41.893262977315636,-87.6219587764921,6.0,1
2334766.0,BOUTIQUE BITES,41.88624674848903,-87.66093333273594,0.0,1
2664858.0,FOODA - 200 W MADISON,41.88205498997484,-87.63389990116276,0.0,1
2602210.0,PRIMROSE ACADEMY,41.910221538262064,-87.68656368457748,5.0,1
2578123.0,TAZA BAKERY,41.99753989334241,-87.7070059618056,7.0,3
2215696.0,THE LEARNING TREE PRE-SCHOOL,41.74526448928806,-87.70241488959012,5.0,1
2659343.0,SHAKE SHACK,41.87820739827345,-87.63572044703741,1.0,2
65225.0,SORRENTO'S PIZZERIA & CUCINA,41.93030153313704,-87.80632767489487,7.0,1
2446865.0,IVY APARTMENTS,41.926324153304904,-87.6632162733215,3.0,1
2529823.0,HABABERO,41.8852892005056,-87.63554688963875,6.5,2
29270.0,NOODLES IN THE POT,41.92690699536436,-87.64866510422101,7.5,2
3663.0,SANOS PIZZERIA,41.96799424187085,-87.74064316006319,0.0,1
3676025.0,PERSPECTIVE CHARTER SCHOOLS-CALUMET CAMPUS,41.7459369887705,-87.65225489444614,0.0,1
2583605.0,ROSA FOOD MARKET,41.77898662910161,-87.69475310591025,11.0,1
2549199.0,DUNKIN DONUTS,41.85255524909848,-87.65941106191202,7.0,1
41243.0,COCONUTZ,41.90382236084491,-87.62924444589264,0.5,4
2627437.0,"ST. IGNATIUS COLLEGE PREP, INC.",41.86714939253235,-87.65404495354574,0.0,1
24741.0,RICHARD J. OGLESBY SCHOOL,41.75469090536944,-87.64550666368382,3.0,1
2240843.0,TAJ MAHAL,41.869401584495904,-87.66467525709314,0.0,1
2064551.0,MOTT STREET,41.90703874954132,-87.66744407587532,3.0,1
1803357.0,"ST. IGNATIUS COLLEGE PREP, INC.",41.86714939253235,-87.65404495354574,6.0,1
2483469.0,"JAMISON'S SOUL FOOD, LLC",41.735833895808945,-87.66798786362106,3.0,2
34190.0,CHILI'S  TOO (T3-H2),42.008536400868735,-87.91442843927047,6.0,3
2391360.0,GADABOUT,41.9765926405371,-87.66855724217827,16.0,1
2442725.0,"GELATINA'S CRIS RESTAURANT, INC.",41.80685498334125,-87.74298396841672,9.0,1
12141.0,MAYAHUEL RESTAURANT & PULQUERIA,41.805139326234766,-87.7432424761978,5.0,2
2442730.0,LITTLE QUIAPO RESTAURANT,41.99563177556418,-87.71270678169132,13.0,2
2693923.0,LA BODEGA RIOS-GALLEOS,41.96049412246253,-87.77463843106311,3.3333333333333335,3
23051.0,EBINGER  ELEMENTARY SCHOOL,42.00443557338257,-87.81116434687875,2.0,1
2245694.0,REZA'S RESTAURANT,41.97784289507301,-87.66820740032976,7.75,4
1355251.0,COOKING FOOLS LLC,41.910622805831906,-87.67576194185494,5.0,1
2363325.0,MOTHER CLUCKERS,41.97525809526954,-87.75199055715778,7.0,1
2205089.0,THE SELFHELP HOME,41.97345075964811,-87.65295403990811,4.0,1
2659344.0,SHAKE SHACK,41.87820739827345,-87.63572044703741,0.0,2
34142.0,CHILI'S TOO (T3 G9),42.008536400868735,-87.91442843927047,6.0,2
2632145.0,MOBIL,41.95443244141688,-87.66244625914061,3.0,2
2583412.0,THE DALCY,41.88688930565887,-87.64882279182801,1.0,1
1681500.0,ASSYRIAN AMERICAN ASSOCIATION,41.99817263576234,-87.6714211436461,4.0,2
2536348.0,RED BARREL,41.80000296677763,-87.73516926865643,7.5,2
2493097.0,KUMA'S CORNER,41.88687884128287,-87.64969725329456,3.0,1
1356711.0,DELTA SKY  CLUB  (T2-E05),42.008536400868735,-87.91442843927047,3.0,2
2496189.0,CHIN LAN ASIN FOOD MARKET,41.9903687224566,-87.69279828859375,5.0,2
2427654.0,"WINNIE THE POOH CHILDCARE, INC.",41.94613254292922,-87.67333384874831,7.0,1
2683321.0,JUST SALAD,41.8880742810662,-87.63495520292739,0.0,2
29445.0,GREYHOUND LINES INC,41.87446342373848,-87.643815926751,3.0,2
2215948.0,"PEACHTREE NURSERY AND LEARNING CENTER, INC.",41.9244267757605,-87.72233368097886,1.0,1
2215678.0,SALVATION ARMY TEMPLE HEAD START,41.88143690693931,-87.66592135954576,1.0,1
2464518.0,UNITED AIRLINES CLUB T1 B-18,42.008536400868735,-87.91442843927047,2.5,2
1803742.0,EASY BAR,41.90331075549537,-87.67665169704529,4.5,2
2309244.0,STUDIO MOVIE GRILL,41.736217960782156,-87.62931043653778,3.6,5
2583227.0,FIRE SUBS,42.00913302441507,-87.6738463824712,0.0,1
2608066.0,LA HUACANA,41.85205177702523,-87.67672125249807,11.0,1
2358543.0,COMMUNITY COOKING SCHOOL,41.989563447865955,-87.66010699454277,0.0,2
2418165.0,MARKELOS BAKERY,41.968476103317144,-87.71678967803517,7.0,2
2621870.0,EL PUEBLITO MEXICAN GRILL,41.97504399270979,-87.74813331935255,6.0,2
2464521.0,UNITED CLUB (T1-C16),42.008536400868735,-87.91442843927047,1.5,2
21286.0,7-Eleven,41.78275257014254,-87.70310188982967,8.0,1
29361.0,TED LENART,41.74715023888862,-87.6280023108539,3.0,1
2326535.0,KIDS KINGDOM ACADEMY,41.90211970499569,-87.77454883584728,0.0,1
2215990.0,HAPPY KIDS PRESCHOOL & DAYCARE CENTER,41.93802847798224,-87.81751327838508,1.3333333333333333,3
2636907.0,MOBILE,41.685029586669295,-87.64200453218888,1.6666666666666667,3
2616122.0,IVY GARDEN EARLY LEARNING CENTER,41.936595015315085,-87.66869807574504,1.0,1
2457833.0,LUTZ FAMILY CENTER,41.91030687774286,-87.6811257204224,3.5,2
2694408.0,A&S BEVERAGE,41.80162841617951,-87.645492014632,2.0,1
2397122.0,A SWEETS GIRL LLC,41.85045102427,-87.65879785567869,1.0,1
26781.0,Talman,41.7940738208314,-87.69029830237123,1.5,2
1649317.0,CORNER BAKERY CAFE,41.87967604011696,-87.62950228266759,4.0,1
2470106.0,THE GROVE AT LINCOLN PARK,41.93163369511654,-87.6421971762962,8.0,1
1984911.0,McDonalds,41.95957509944307,-87.74764568707928,9.0,2
2333024.0,METROPOLITAN FAMILY SERVICES,41.796572016989586,-87.6599404762213,3.0,1
2404807.0,ARCLIGHT CINEMAS,41.90856013536843,-87.64645268572522,4.333333333333333,3
2437219.0,FALAFEL DREAM,41.95225488946834,-87.80739690900613,1.3333333333333333,3
2511948.0,CORE JUICE BAR,41.79178653965037,-87.70365422787454,8.5,2
2583356.0,RAMEN-SAN,41.88628211684129,-87.64851477973815,0.0,1
2677861.0,KIDS & COMPANY,41.88174521304043,-87.65611110962234,0.5,2
2683391.0,FALCON FUEL,41.74387991306119,-87.60488313899567,2.0,2
2501681.0,BEATRIX,41.886890531772956,-87.64882281750184,2.0,1
2304569.0,BUTCHER'S TAP,41.946831640926156,-87.66386199813489,15.0,1
70230.0,RUDY LOZOUS,41.84547683765483,-87.6840650592531,5.0,1
2037181.0,JEWEL/OSCO,41.948004550829744,-87.66418623070139,9.0,1
1717536.0,PANADERIA TORRES BAKERY,41.77889100325303,-87.70121443719749,4.0,1
1767699.0,FEED,41.8955436507973,-87.69684454390777,8.0,1
2570034.0,RUBY'S FAST FOOD,41.96112819802538,-87.72216036908962,6.0,2
2663728.0,"I'M HUNGRY NOW!!, LLC",41.735927051968524,-87.64616369258991,4.333333333333333,3
67732.0,HOLIDAY INN SUITES,41.87451215422576,-87.63986470914409,11.0,1
2677305.0,JIAO,41.88162516725497,-87.62634607877139,6.0,1
2211455.0,ISLA TROPICAL,41.92349095750785,-87.74613233682382,0.0,2
1476021.0,TAQUERIA SIGLO XX,41.968445246044006,-87.71941657581395,12.0,1
2206654.0,THE HARTWELL,41.982339542800275,-87.6723844775638,0.0,1
2694045.0,"ELLA'S BBQ, INC.",41.9180886243431,-87.6470831479794,13.0,1
2032648.0,HOT WOKS COOL SUSHI,41.943312712450826,-87.67972196894465,3.5,2
2658437.0,WOODWIND,41.894085380663164,-87.62040431002175,0.0,1
2308821.0,ROLANDO TACO'S,41.92310285562109,-87.74641732066215,5.25,4
2622601.0,GOURMET JUNK FOOD,41.739771259830306,-87.64508611036023,0.0,2
2040692.0,SAWYER,41.7975215482685,-87.70504311350855,1.0,1
2551235.0,LA PULQUERIA,41.846499656884625,-87.68534069617046,0.0,1
2683358.0,RADLER LOGAN SQUARE,41.924482563171615,-87.6996928656208,0.0,2
1675762.0,THE FIFTY / 50,41.90304699799323,-87.67911932717314,6.0,2
2565060.0,KRUNG THEP THAI CUISINE,41.940146235765575,-87.64912448509257,8.0,1
2252564.0,THE RADLER,41.924482563171615,-87.6996928656208,0.0,1
11013.0,MARTIN'S CORNER,41.8513412126996,-87.67814936266365,1.0,1
2451779.0,VENUS DINNER - THEATER,41.95007593145458,-87.66395325868989,6.0,1
2658435.0,WOODWIND,41.894085380663164,-87.62040431002175,0.0,1
2616205.0,ROYAL NUTRITION,41.78657793776631,-87.68987967619805,5.0,1
2137188.0,HUARACHES Y QUESADILLAS DONA CHIO,41.96835849693988,-87.7068542288518,11.0,3
2551232.0,LA PULQUERIA,41.846499656884625,-87.68534069617046,9.0,1
2303631.0,CORNER SHOP,41.96811502066345,-87.7295540103715,1.5,2
1791.0,THE BUDLONG HOT CHICKEN,41.91820856763485,-87.65375768752133,9.0,1
2298459.0,SAIMAI THAI,41.91844708184752,-87.63792342122498,7.0,1
2202617.0,NOBLE AUBURN GRESHAM PREP,41.73446701163011,-87.6510242176779,2.0,1
2289586.0,ISLA TROPICAL,41.92349095750785,-87.74613233682382,2.3333333333333335,3
2658434.0,WOODWIND,41.894085380663164,-87.62040431002175,1.0,1
2694458.0,TAQUERUIA SIGLO XX,41.968445246044006,-87.71941657581395,0.0,1
2658436.0,WOODWIND,41.894085380663164,-87.62040431002175,0.0,1
2492226.0,MARIBELLA'S ITALIAN CUISINE + BAR,41.946639592877055,-87.71494918308186,4.0,2
2043262.0,URBAN COUNTER,41.86683145443883,-87.62566960895664,3.0,1
2391025.0,LITTLE JIM'S/BIG JIM'S,41.94550975342797,-87.64928456978339,12.5,2
1494240.0,MI MEXICO GROCERY,41.786376343209604,-87.68877651402562,13.5,2
25231.0,SAWYER,41.79756783709009,-87.70597566195573,2.0,1
1142451.0,JEWEL FOOD  STORE # 3345,41.86672435405559,-87.62596114837754,6.333333333333333,3
2447089.0,5411 EMPANADAS,41.949364912786166,-87.66393312220045,5.5,2
1273690.0,CARDONA'S,41.96825094865302,-87.71732730641341,11.666666666666666,3
2694066.0,WINGS FLY,41.75148901882857,-87.57663364715819,5.5,2
2551233.0,LA PULQUERIA,41.846499656884625,-87.68534069617046,0.0,1
2535478.0,LA PULQUERIA,41.846499656884625,-87.68534069617046,5.0,2
2683359.0,RADLER LOGAN SQUARE,41.924482563171615,-87.6996928656208,13.5,2
2108171.0,UNCOMMON GROUND,41.951064053085005,-87.65979512802838,10.0,2
2631176.0,CARM'S,41.87172647304121,-87.65348716348021,2.0,1
33146.0,MCDONALDS #4655,41.844249433592466,-87.73262060501526,1.5,2
2677306.0,JIAO,41.88162516725497,-87.62634607877139,0.0,1
66919.0,LATIN AMERICAN BAKERY,41.924663339079686,-87.72095974985143,8.0,3
2308884.0,RAMEN TAKEYA,41.886681234713045,-87.64835209199197,1.0,1
2354772.0,EL TACONAZO JR.,41.92450769084945,-87.73398032565292,6.6,5
2269323.0,WILLOW TREE CHILD CARE AND DEVELOPMENTAL CENTER,41.91402910630822,-87.68746325590477,8.5,2
2621574.0,RAFFAELO'S,41.915727954576056,-87.6870786651309,16.5,2
2694282.0,CAMINO A LA SALUD,41.77847132003681,-87.72908901430353,3.0,1
2115060.0,ROYAL DELI,41.85491131910428,-87.67577256587357,0.0,1
2483547.0,MEJORA TU ESTILO DE VIDA,41.77847132003681,-87.72908901430353,5.5,2
2215598.0,METROPOLITAN FAMILY SERVICES MIDWAY CHILDCARE CENTER,41.7788532281178,-87.70378111914683,3.0,1
2488666.0,WHOLE FOODS MARKET,41.93974461573451,-87.6685161010639,3.0,1
1069788.0,METHODIST HOSPITAL OF CHICAGO,41.97325400916783,-87.67099338741193,1.75,4
44723.0,THE PRODUCE CENTER,41.9872696368058,-87.77851570480085,4.5,2
2615578.0,TBD,41.96127005883386,-87.68413885818937,0.0,1
2694084.0,JAIPUR,41.88451799637232,-87.64730383120978,7.5,2
2690118.0,TIPSY SPACE,41.89096143449703,-87.65842176800524,1.5,2
2349648.0,QUEEN OF ANGELS SCHOOL,41.96379928313907,-87.68890300567264,1.0,1
1520673.0,PHILLY'S BEST,41.939834292931025,-87.6518824218835,7.5,2
2560757.0,PUDGY'S PIZZA,41.65017306247574,-87.54730766219589,3.0,1
2636936.0,HACHI SUSHI,41.68105955550191,-87.53936754137594,0.5,2
1878473.0,NORTH WEST REGIONAL CENTER,41.93823384878701,-87.72267123253589,2.0,1
1092160.0,RISE RESTAURANT,41.94346602625338,-87.66377160318754,0.0,1
2535470.0,DUNKIN DONUTS,41.774244210348684,-87.70317482230865,6.0,1
2693913.0,IRIE JERK EXPRESS,41.80213364473473,-87.62120255158662,3.5,2
2066650.0,Northside Catholic Academy,41.995043191552135,-87.66544654214073,2.0,1
34633.0,TOMMY'S GRILL,41.89037477503253,-87.67704267603729,6.5,2
1675002.0,DUNKIN DONUTS/BASKIN ROBBINS,41.97591106463358,-87.78772272010706,4.0,2
2647052.0,CAPITAL ONE CAFE,41.79943293964355,-87.58923799532896,0.3333333333333333,3
2215594.0,A STEP AHEAD LEARNING CENTER,41.95880408212383,-87.65342019040853,3.5,2
49913.0,NICKY'S RESTAURANT,41.75104964416283,-87.68272735043797,6.0,2
1492853.0,CESAR'S ON BROADWAY,41.93563185766838,-87.64439807874828,8.333333333333334,3
2658311.0,LA BOULANGERIE,41.927864202687005,-87.7061618818839,0.0,2
2646954.0,TOUS LES JOURS,41.90339620329853,-87.67113330662121,2.3333333333333335,3
833.0,STEVE'S LOUNGE,41.655416650555715,-87.54729079495272,3.0,1
1619366.0,HIGH NOON SALOON,41.9097737118627,-87.67674794453644,0.0,1
2684067.0,LA BOULANGERIE,41.927864202687005,-87.7061618818839,0.0,2
1817613.0,"PREMIUM FOOD MART, INC.",41.77934936308415,-87.68492728907817,13.5,2
2288707.0,OLIVE GARDEN ITALIAN RESTAURANT,41.946397665207456,-87.7173205836907,5.0,1
2215593.0,A STEP AHEAD LEARNING CENTER,41.95866654787631,-87.653331779783,1.0,1
2694056.0,LA MICHOACANA ICE CREAM,41.93169646610892,-87.74254645501154,0.0,1
2412059.0,SKY CAFE,41.89665988131876,-87.62175523527284,1.0,1
2506878.0,BONCI,41.88482262029684,-87.65080649153798,8.0,1
2314936.0,BUDLONG,41.79936519578902,-87.59490016475203,6.0,1
2664847.0,LA BOULANGERIE,41.927864202687005,-87.7061618818839,0.0,2
2446619.0,SUBWAY,41.76789331709745,-87.6640189682719,4.5,2
2569339.0,LA BOULANGERIE,41.927864202687005,-87.7061618818839,17.5,2
2245207.0,WEST TOWN BAKERY,41.89237092419156,-87.62741589201816,1.0,1
2215829.0,IT TAKES A VILLAGE CHILD CARE SERVICES,41.902779671122865,-87.72636902689327,2.0,1
1675835.0,EDIBLE ARRANGEMENTS,41.86951758162952,-87.65725911176946,2.0,1
2423993.0,MCDONALD'S,41.742420824438476,-87.6630911433338,3.6666666666666665,3
51992.0,BITE,41.90052793259093,-87.6868161338336,10.166666666666666,6
2528632.0,THE CHICKEN SHACK,41.74947552001605,-87.68297883687882,7.5,2
2215631.0,YOUNG SCHOLARS DEVELOPMENTAL INSTITUTE,41.78641112652697,-87.70000850898991,3.0,2
2215925.0,IT TAKES A VILLAGE,41.902765488421124,-87.72728665446205,1.0,1
2551793.0,SEASHELL ON 111TH INC,41.692660628792865,-87.62594006085334,10.333333333333334,3
9890.0,L & M STARLIGHT RESTAURANT INC,41.74247143758505,-87.70234438264238,9.333333333333334,3
1143063.0,FAMILY DOLLAR # 4666,41.76601071201035,-87.57151874606954,0.75,4
2646922.0,DUNKIN DONUTS/BASKIN ROBBINS,41.97552942425021,-87.65999237688355,1.5,4
2583843.0,PAULA'S THAI KITCHEN,41.926593115888664,-87.64865397223507,11.0,1
2579125.0,LA BODEGA,41.96049412246253,-87.77463843106311,0.0,1
1577622.0,SHANGHAI INN RESTAURANT,41.96761495890106,-87.67900579440833,14.0,1
2689420.0,OROMO CAFE BUCKTOWN,41.91618570053351,-87.68752368767451,5.666666666666667,3
2463326.0,ROYAL GARDEN BANQUETS AND CATERING,41.92577925845061,-87.80617234627559,1.0,1
2506989.0,SHIRLEY'S CAFE,41.88051271628613,-87.7344379090307,1.5,4
2550985.0,BRASERITOS BUFFET &  RESTAURANT,41.90973594998965,-87.72927346612649,10.0,1
2527659.0,INSTITUTO HEALTH SCIENCES,41.84595343949136,-87.68562032824758,3.0,1
2488238.0,ARETHA'S DREAM,41.751322101891866,-87.60935463673758,11.0,2
3305862.0,FOUNDATIONS COLLEGE PREP,41.69484344211779,-87.65351509376782,7.0,2
2501577.0,DEVON & CALIFORNIA GROCERY STORE,41.99766952286052,-87.69970642324591,0.0,1
2664939.0,STARBUCKS RESERVE ROASTERY,41.89397334746711,-87.62438151862536,0.0,1
2600856.0,TAYLOR GOURMET MORGAN ST LLC,41.885312780714,-87.65198514048795,0.0,1
2224978.0,SAINT CAJETAN,41.68968307189899,-87.68305505203743,7.666666666666667,3
2349645.0,GATEWAY TO LEARNING,41.97146621666841,-87.69021462743629,3.0,1
2225540.0,CRISTO REY HIGH SCHOOL,41.85210753886608,-87.67296075310296,2.0,1
16310.0,VALENTINA RESTAURANT,41.778621898429854,-87.73530382261269,10.6,5
1868311.0,CREMERIA SANTA MARIA,41.84454429200885,-87.71107279676545,4.5,4
2694144.0,JERK 48,41.88051271628613,-87.7344379090307,0.0,1
2693986.0,THOREK MEMORIAL HOSPITAL,41.97325400916783,-87.67099338741193,13.0,1
2683374.0,STARBUCKS COFFEE,41.95255658757639,-87.64950022697546,1.5,4
2074062.0,ACADIA RESTAURANT,41.85912583721659,-87.62549335064415,5.0,3
2664937.0,STARBUCKS RESERVE ROASTERY,41.89397334746711,-87.62438151862536,0.0,1
2621875.0,MARISCOS LA SIRENA,41.80083350218459,-87.72829049122927,8.5,2
2683793.0,YETI,41.909985926655196,-87.67707965187611,5.5,2
1649678.0,TACO & BURRITO EXPRESS BROTHERS .,41.928473577836286,-87.64901462154842,5.666666666666667,3
2637297.0,TRASPASADA RESTAURANT,41.94719645308579,-87.66871595779075,5.5,2
2189302.0,OLIVIA'S TASTE,41.937890401715364,-87.80640601940749,6.0,1
2463460.0,HAROLD'S CHICKEN & FAMILY,41.692343923055205,-87.65253399446618,0.0,1
2684203.0,"MAYA SUPERSTORE, INC.",41.77894012494479,-87.71186857228976,12.5,2
2492153.0,KIE-GOL-LANEE,41.973478149511195,-87.65507958945189,10.0,1
34173.0,PUBLICAN TAVERN K1 (T3 MAIN),42.008536400868735,-87.91442843927047,4.5,2
2391339.0,KHAOSAN & TAYLOR,41.86956301634025,-87.65446400361422,11.5,2
2664936.0,STARBUCKS RESERVE ROASTERY,41.89397334746711,-87.62438151862536,0.0,2
2215607.0,AMERICAN EDUCARE,41.997315763216925,-87.70725178686448,2.0,2
14788.0,ANGELINA RISTORANTE,41.94720549468551,-87.64702664696026,4.5,2
2689763.0,ZOUP,41.87953373462755,-87.63009026893299,1.5,2
2298633.0,DOMINO'S PIZZA,41.68494313726917,-87.644368901148,0.0,1
2690283.0,LUPITA'S SUPERMERCADO,41.81530069366088,-87.70204160078063,2.5,2
2195981.0,Kim Long Restaurant,41.92424241716219,-87.75434350318378,8.333333333333334,3
1332164.0,LOS ALAMOS,41.85228855469908,-87.67569747926231,5.0,1
3619417.0,CHICAGO COLLEGIATE CHARTER SCHOOL,41.67932392974764,-87.61800463015409,7.0,2
2689957.0,OJ BREAKFAST LUNCH & BRUNCH,41.95428475504034,-87.6773557509826,2.3333333333333335,3
34641.0,CHENGDU IMPRESSION,41.92860374503243,-87.6487247027843,0.0,1
2231589.0,SMART LEARNING CENTER,41.8426954783492,-87.65550921697735,1.0,1
1884255.0,FOOD 4 LESS MIDWEST # 567,41.909505147743424,-87.74695993627232,3.0,1
2683795.0,YETI,41.909985926655196,-87.67707965187611,0.0,2
2641827.0,AMERICAN EDUCARE,41.997315763216925,-87.70725178686448,0.0,1
2146528.0,DOROTHY'S CAN DO CAFE,41.97146621666841,-87.69021462743629,2.0,1
1953650.0,6978 SOUL FOOD,41.90906215302536,-87.80024470792762,7.333333333333333,3
13976.0,ALDI INC #64,41.91334246823248,-87.68182248081257,7.2,5
2004134.0,"Supermercado  Castillos, Inc",41.78653601978693,-87.69244039932887,7.5,2
2412162.0,NADIA'S GOURMET GRAPES,41.70679286000726,-87.64443891865488,4.0,2
1920816.0,EASTERN BREADSTONE BAKERY,41.997655797973884,-87.70046566561139,8.5,2
39981.0,ECUADOR RESTAURANT,41.93196325562962,-87.70099958246527,9.0,1
2677167.0,THE BOIL CAJUN SEAFOOD,41.90315323488667,-87.67258598142035,10.0,2
2163860.0,GRECIAS BAKERY,41.80115107241454,-87.69090974793743,8.0,1
2501098.0,MI TOCAYA,41.928574981125955,-87.6975783536939,12.0,3
34201.0,BJ'S MARKET (T3 K15 FOOD COURT),42.008536400868735,-87.91442843927047,5.5,2
1872.0,BIAGIO'S,41.95813969935245,-87.7673124325715,7.5,2
43031.0,KINDRED HOSPITAL CHICAGO-NORTH CAMPUS,41.961394983299115,-87.6929262371129,3.0,1
34242.0,BRIOCHE DOREE CAFE BAKERY (T3 K15 FOOD COURT),42.008536400868735,-87.91442843927047,3.5,2
1927793.0,HEMA'S KITCHEN,41.997596381381456,-87.69141491131064,0.0,1
2418112.0,ORIOLE,41.886135368620835,-87.6451750641585,0.0,2
2578263.0,POPEYES,41.7209318257351,-87.65094179046467,5.0,3
2294374.0,FOR YOUR CHILD II,41.91742148682099,-87.69231781258574,8.0,1
17349.0,DUNKIN DONUTS-BASKIN ROBBINS,41.95346817003143,-87.75230593409377,11.5,2
2307752.0,MARIANO'S,41.976481667612425,-87.65483977716684,8.2,5
2404396.0,NORTHSIDE GRILL,41.959792501515146,-87.72783183969106,9.0,2
2522562.0,TAMARINDO LOCO,41.940292152107425,-87.7273633833375,7.0,1
2204603.0,LITTLE SISTERS OF THE POOR,41.92421386833004,-87.66070640133562,2.0,1
2216047.0,LITTLE BEAR DAY CARE,41.77643961364602,-87.72255635327761,4.0,1
2496842.0,PROVIDENT CAFE,41.802238709769085,-87.61399572714086,3.0,2
3833.0,G & N SNACK SHOP,41.90964983634534,-87.75269216065263,3.0,1
34199.0,WOLFGANG PUCK EXPRESS (T3 K12),42.008536400868735,-87.91442843927047,5.333333333333333,3
28149.0,AFRICAN SUPERMARKET & LIQUOR,41.880779974868965,-87.7303060140944,0.0,1
2684069.0,KIDDIE ACADEMY OF CHICAGO-LINCOLN SQUARE,41.970550218072056,-87.68993650758067,3.6666666666666665,3
2506267.0,TAQUERIA EL PLAN,41.80120185097902,-87.68796644449378,7.0,2
2206264.0,KINDRED HOSPITAL CHICAGO-NORTH CAMPUS,41.961394983299115,-87.6929262371129,3.0,1
2677168.0,THE BOIL CAJUN SEAFOOD,41.90315323488667,-87.67258598142035,0.0,2
2522869.0,KIMBERLI  SUSHI  BAR & THAI,41.96846702189827,-87.69322013455337,4.333333333333333,3
2094560.0,PR ITALIAN BISTRO,41.95296441761877,-87.65464669411456,7.5,2
2671356.0,POPEYES LOUISIANA CHICKEN,41.70520848949309,-87.7011632562526,7.0,2
2198175.0,SERRELLIS FINER FOODS,41.90922989499976,-87.78712882071771,8.0,1
1716839.0,SPINZER RESTAURANT,41.99763955874522,-87.68872053987526,10.0,1
2476142.0,"QUEST FOOD MANAGEMENT SERVICES,INC",41.94768023826198,-87.69791408596312,1.0,1
1884292.0,SUBWAY (T3 ROTUNDA),42.008536400868735,-87.91442843927047,4.0,2
22181.0,MORRY'S DELI,41.79511921013982,-87.58555525977029,3.0,3
2569780.0,LASHON'S ANGELIC LEARNING CENTER LLC,41.9022123009897,-87.74884541003385,0.0,1
2392039.0,TUXPAN MEXICAN GRILL,41.98249929727471,-87.77415091836444,11.0,1
2334925.0,WALMART NEIGHBORHOOD MARKET #3166,41.8089016636963,-87.60669696618142,3.0,1
2294196.0,BROOKDALE LAKE SHORE DRIVE,41.936171648587916,-87.63693905225722,15.5,2
2055586.0,LITTLE BABA'S,41.76479738346464,-87.68389929690201,8.5,2
2203912.0,FALCON #1,41.74387991306119,-87.60488313899567,3.0,1
2631808.0,THE BLACK BARREL TAVERN,41.88155995723971,-87.65437239771845,0.0,1
2663519.0,PORTO,41.896182324221726,-87.66735606423251,0.0,1
2689324.0,STARBUCKS COFFEE #49695,41.88199433820508,-87.6397586848809,0.0,2
2385788.0,CAFE MARBELLA,41.982350141069084,-87.77365984476519,0.0,2
2093683.0,SUBWAY,41.885638980759765,-87.6290500154005,3.0,2
2394824.0,STEPPING STONES NURSERY SCHOOL,41.928357625188326,-87.71762470274635,4.666666666666667,3
2458128.0,NEWPORT CHILDREN'S ACADEMY,41.94406143097434,-87.67470356794354,2.0,1
2589939.0,TIME OUT MARKET,41.8868708394097,-87.65050119372707,13.0,1
2308003.0,OLD GROUNDS SOCIAL,41.929124235504766,-87.65333791705932,4.8,5
1490003.0,PIE-EYED PIZZERIA,41.89615078732556,-87.65579995878325,4.0,1
2298608.0,AUSTIN TOWN HALL CHILDREN'S CENTER,41.88784691787575,-87.76559244621006,0.0,1
25911.0,YATES ELEMENTARY SCHOOL,41.915028583238914,-87.70024324273244,8.0,3
2307773.0,4 YOLKS,41.92888332655037,-87.806280071214,3.3333333333333335,3
76580.0,CHIPOTLE MEXICAN GRILL,41.940002577087995,-87.64425130765743,6.0,1
1621667.0,MCCORMICK & SCHMICK'S,41.886707555069805,-87.6278834784023,3.0,1
76794.0,MOBIL,41.99059321365038,-87.6921619626574,6.0,1
9523.0,RISTORANTE AGOSTINO,41.931339545227914,-87.80636676313536,6.0,1
2636886.0,PORTO,41.896182324221726,-87.66735606423251,3.0,1
2342288.0,MACKELLY'S,41.864465603515626,-87.62393580466959,6.5,2
2601224.0,LA PALMA SUPERMERCADO,41.81757930768816,-87.69832058630668,7.333333333333333,3
22271.0,Daniel Boone Elementary School,42.00343519229148,-87.6975001054094,3.0,1
2303889.0,THE MARQ,41.879535234081224,-87.63002421135039,6.0,1
2689814.0,HARRY CARAY'S SHORTSTOP,41.789329323265385,-87.74164564419637,0.0,1
2589940.0,TIME OUT MARKET,41.8868708394097,-87.65050119372707,0.0,1
2313695.0,JIMMY BUFFET'S MARGARITAVILLE BAR & GRILL,41.892249163400116,-87.60951804879336,9.2,5
2574824.0,STEINGOLD'S STATION,41.965968695807646,-87.70120491585438,0.0,1
2631807.0,THE BLACK BARREL TAVERN,41.88155995723971,-87.65437239771845,2.5,2
2601031.0,FRITZY'S OF LINCOLN PARK,41.9180886243431,-87.6470831479794,0.0,1
2234115.0,PARSON'S CHICKEN & FISH,41.9175611431489,-87.70116990701358,11.0,2
2689813.0,HARRY CARAY'S SHORTSTOP,41.789329323265385,-87.74164564419637,0.0,1
23269.0,SAN SOO GAB SAN,41.9772862709721,-87.68905760864439,12.0,2
2609093.0,UPTOWN PHO,41.973415011961535,-87.65542230934777,6.0,2
2600757.0,JOHNNA CAFE,41.874315813612796,-87.68638937160839,1.75,4
1820125.0,UNCOMMON  GROUND,41.99802474346836,-87.66556345762727,1.0,2
2589941.0,TIME OUT MARKET,41.8868708394097,-87.65050119372707,0.0,1
2313983.0,ROSATI'S PIZZA,41.98258310472735,-87.77422708745797,5.0,1
2153545.0,WALMART,41.93403616510409,-87.64455372891567,3.0,1
83774.0,THAI VALLEY RESTAURANT,41.964740292146104,-87.70850367911711,3.5,2
2289529.0,SALSITA,41.94933813195264,-87.64969635420978,4.0,3
2658587.0,DOLLAR TREE,41.85223513192112,-87.67910256829394,0.3333333333333333,3
2636887.0,PORTO,41.896182324221726,-87.66735606423251,0.0,1
2457664.0,KINNAREE THAI RESTAURANT,41.92563809974706,-87.66801562444297,9.0,1
2578218.0,DOWNTOWN  PIZZA & WING,41.918261583575294,-87.65029313626188,0.0,1
2694102.0,STARBUCKS,41.916333602855985,-87.74592795599106,0.0,1
2204245.0,CLAYTON RESIDENTIAL HOME,41.91922593711278,-87.63677565478966,6.0,1
2374752.0,MINA'S RESTAURANT,41.91695672568109,-87.75280847188141,6.0,1
1842767.0,FOLKLORE,41.903254515018354,-87.6798250453467,1.5,2
2189438.0,ALEGRIA'S SEAFOOD,41.90045255936403,-87.66756009821935,12.0,1
2616936.0,79TH BBQ,41.692267088936674,-87.64222983410407,3.0,1
1194932.0,SU CASA,41.89319255965124,-87.62617281400281,7.0,4
1042888.0,DEVON MARKET,41.99822825376651,-87.66710446646866,8.0,2
1821836.0,SERBIAN VILLAGE BAR & GRILL,41.954034303601645,-87.70732758144212,0.0,1
2229409.0,MYSORE WOODLANDS,41.9977653535896,-87.69428406894727,4.5,2
1884100.0,"HYDE PARK PRODUCE, LTD",41.79957680216707,-87.5955129218999,3.0,1
2658395.0,THE BANANA LEAF RESTAURANT,41.75171043268834,-87.5764686289653,7.5,4
2391595.0,CHICAGO PHILLY STOP,41.88543498614326,-87.66708805526099,5.5,2
1493645.0,SUKHADIA SWEETS & SNACKS,41.99753950771954,-87.69461506221796,11.0,1
2690046.0,GUADALAJARA DOLLAR STORE,41.93105011133667,-87.77450280732587,3.0,2
2516680.0,THE LEARNING EXPERIENCE,41.9902048994482,-87.73177133891328,0.5,2
1545632.0,CITGO,41.77950376765716,-87.65410178705166,1.0,1
2690248.0,CLUB LA JUVENTUT,41.968437403721495,-87.72024527858912,9.0,1
2137662.0,DRYHOP BREWERS,41.939309677466014,-87.64422837055051,3.5,2
2215901.0,AMAZING GRACE DAYCARE CENTER,41.69164609748754,-87.6422140544927,2.0,2
1999082.0,LITTLE CAESARS,41.790043968551885,-87.80130039473886,4.0,1
2670198.0,TAN LU,41.85410541494823,-87.63405906823053,2.0,2
2363298.0,COMMUNITY CARE CENTER,41.81601418845859,-87.6247901186781,4.0,1
2326979.0,MARIANO'S #8516,41.92024549048859,-87.66857296261333,6.5,2
2579179.0,McDONALD'S,41.947457574079124,-87.65689136051212,1.0,2
2689854.0,STARBUCKS COFFEE #57239,41.872742312472695,-87.67744609066818,0.5,2
23881.0,PAUL CUFFE ACADEMY,41.742444894862835,-87.6536699441503,2.0,1
10468.0,FIESTA MEXICANA RESTAURANT,41.92603755999104,-87.64937908456434,0.0,1
2419273.0,SANJUSTIN'S KITCHEN,41.75804825835509,-87.62945338890275,2.0,1
18234.0,JOE'S BARBQUE,41.880571145964275,-87.74795724892677,4.5,2
3624947.0,HORIZON SCIENCE ACADEMY,41.92559566920453,-87.76984336585824,3.0,1
1574657.0,DUNKIN DONUTS,41.87146692435432,-87.66973628969465,0.5,2
1546100.0,DOMINO'S PIZZA,41.940865238847174,-87.80699550827063,3.0,2
2689575.0,Starbucks Coffee#2229,41.87800606262711,-87.63402203216754,2.0,2
1620828.0,MCDONALD'S,41.80874937401075,-87.66230696003369,0.0,2
2496708.0,BAMBINOS BAKERY,41.77895708746995,-87.71082664189547,13.0,1
2363473.0,"THE GARDENER SCHOOL LINCOLN, LLC",41.93359460097582,-87.66036913432342,0.5,2
2578491.0,PRAIRIELAND MONTESSORI,41.91028301182998,-87.68240519163845,2.0,1
2626454.0,CHICAGO HALAL,41.922731532421736,-87.6447528911125,14.0,1
2496025.0,CAIRO KEBOB,41.925280067940626,-87.66677400880488,14.5,2
32693.0,EUROPEAN CHALET/MAYORS MANSION,41.79256531973131,-87.80140183966992,2.0,1
2684662.0,HAPPY VILLAGE,41.901264009685704,-87.67461482324751,0.0,1
2688836.0,SPICE & SUGAR INC,41.890389110395496,-87.7062530476389,3.0,2
2215656.0,"CHILDREN'S CREATIVE CENTER, INC.",41.954072048740024,-87.67682369308265,6.5,2
2601262.0,S&D FOOD MART,41.874460829211415,-87.75499004720312,6.0,1
2564709.0,KING GYROS,41.75061951046441,-87.6344092993733,14.0,2
2694106.0,HAROLDS THE FRIED WING KING#1,41.96549905070616,-87.65824706819338,4.0,1
2608552.0,HUNTER PERKINS CAMPUS,41.74314889790767,-87.66574596649906,2.5,2
2020869.0,ERIC'S FOOD CENTER,41.65518859029959,-87.54699941852803,8.0,1
2215762.0,THE WOMEN'S TREATMENT CNTR-DAY,41.88451419700416,-87.66704209415728,6.0,1
2418532.0,SANJUSTIN'S KITCHEN,41.75804825835509,-87.62945338890275,0.5,2
1742870.0,SUBWAY,41.92413043083973,-87.74623743353418,6.0,1
2694058.0,DOMINO'S PIZZA,41.940865238847174,-87.80699550827063,1.0,1
2636596.0,HAROLD'S THE FRIED WING KING,41.96549905070616,-87.65824706819338,3.75,4
23521.0,P S BANGKOK RESTAURANT,41.942923613553674,-87.6529067674051,7.0,1
1675154.0,SIX CORNER BAKERY,41.953781198133576,-87.7481577538393,5.0,2
7471.0,GULLIVER'S  PIZZA,42.01924584097389,-87.69833170944449,8.0,1
2412224.0,SAINT LOU'S ASSEMBLY & MONEYGUN,41.88580606886823,-87.64508754379452,4.666666666666667,3
2215758.0,SWEDISH COVENANT HOSPITAL  CCC,41.97486650465706,-87.69987787644459,6.0,1
2205302.0,MONROE PAVILION HEALTH & TREATMENT CENTER,41.880356911877605,-87.662082414818,0.0,2
23451.0,GRESHAM ELEMENTARY SCHOOL,41.73891334027122,-87.6450616939937,2.0,1
2055653.0,TACO JOINT,41.917916818190015,-87.64835076816347,8.333333333333334,3
1044305.0,Kit Kat Lounge and Restaurant,41.94914733742978,-87.64968983874849,7.0,1
2689699.0,MIAMI 99 CENT PLUS,41.85883396834164,-87.71786718629977,2.0,1
2124659.0,IRON HORSE ALE HOUSE,41.99353421851406,-87.80126102080993,16.0,1
2690035.0,FRESHII,41.87803442833617,-87.63117140697915,2.3333333333333335,3
2146301.0,KHOR FUSION,41.86940026045194,-87.66475477893509,9.0,1
23361.0,Grissom,41.66245712367201,-87.55334334217422,1.0,1
1979653.0,PL Lounge,41.94429815959749,-87.72748280788329,5.666666666666667,3
1927736.0,TAPAS VALENCIA,41.861018239854175,-87.62741709999585,0.0,1
2583903.0,ANTOJITOS GUATEMALATECOS,41.923777505298624,-87.77191442640833,7.0,2
2229533.0,DIMO'S PIZZA SIX CORNERS,41.91091779442156,-87.67732639626593,18.333333333333332,3
2690251.0,ANTOJITOS GUATEMALATECOS,41.923777505298624,-87.77191442640833,7.0,1
2608888.0,TAQUERIA BELEN,41.93769482064946,-87.76631878609123,3.5,2
2487821.0,GORDITAS AGUASCALIENTES,41.797543905371754,-87.70352333204033,2.0,1
2363817.0,SUPERMERCADO MARTINEZ,41.81530069366088,-87.70204160078063,5.75,4
2670414.0,SUPERMERCADO EL PARAISO INC.,41.81530069366088,-87.70204160078063,0.0,2
2601188.0,LAWNDALE QUIK MARKET,41.85883396834164,-87.71786718629977,0.0,1
81030.0,UNCLE JOE'S JERK CHICKEN,41.802341317012115,-87.58937243573278,1.0,1
1876.0,JIMENEZ FRESH MARKET,41.93876196579179,-87.76040707140056,12.0,1
2631080.0,FRIED RICE EXPRESS,41.98080501735688,-87.80502338256188,2.6,5
38964.0,SPORTSMANS CLUB,41.89901735734197,-87.68707307892538,2.5,2
2298761.0,MEZQUITE POLLO EXPRESS,41.79357366564852,-87.6942215395728,9.0,1
2595835.0,L & L INFANT CARE,41.93999186707436,-87.6559745010651,1.0,2
2522561.0,LADYBUG & FRIENDS DAYCARE AND PRESCHOOL,41.95385404889773,-87.71876668911054,1.0,1
1385.0,JEWEL FOOD STORE #3514,41.94638465155411,-87.64652486334683,11.0,1
2204615.0,THE SOCIETY FOR THE DANISH OLD PEOPLE'S HOME,41.984530848808255,-87.79773005249488,2.0,1
39845.0,THE REVELER,41.943328037206484,-87.67818416456056,9.5,4
1648670.0,PANERA BREAD #1004,41.875179056057796,-87.6274737894488,1.5,2
1647046.0,7-Eleven,41.88559428960742,-87.64252600441937,7.0,1
3759934.0,OFFICER DONALD MARQUEZ CHARTER SCHOOL,41.808336344178784,-87.69738923286535,0.0,1
2501114.0,PROXI,41.88432406015637,-87.64239826176153,2.0,1
1516153.0,AFC SUSHI @ JEWEL-OSCO #3514,41.94638465155411,-87.64652486334683,2.0,1
22997.0,PASTA FRESH,41.942206867982435,-87.80704466298685,4.0,2
2124582.0,SNACK SHOP RESTAURANT,41.82366771868339,-87.6382950217091,9.0,2
2221636.0,ZIA'S LAGO VISTA,41.95118641238087,-87.66882564060083,8.333333333333334,3
2121437.0,BORELLI'S,41.96881436962451,-87.68264478410583,3.6666666666666665,3
1170649.0,CHICAGO BY NIGHT,41.93868377475747,-87.76656249384537,2.0,2
2224822.0,SOUTHWEST SENIOR CENTER / GOLDEN DINER,41.782098140853165,-87.70307836593555,3.5,2
1042895.0,SKYBRIDGE RESTAURANT  BAR & GRILL  (T2 F14),42.008536400868735,-87.91442843927047,4.0,2
2391507.0,BAR LOUIE,41.86475566339389,-87.64669917908263,8.0,1
2671244.0,RINGO,41.925085303213265,-87.6649612904849,1.0,1
51126.0,MARIA'S MEXICAN RESTAURANT,41.914568495012965,-87.80580867011524,3.5,2
1904207.0,PADDY O FEGAN'S,41.88583206160444,-87.6476262989679,6.5,2
30566.0,SIAM PASTA,42.01645779645396,-87.69035474983077,4.0,1
1621425.0,CUBS BAR & GRILL (T3 ROTUNDA),42.008536400868735,-87.91442843927047,6.5,2
1270963.0,TAC'S COCKTAIL LOUNGE,41.801566341051846,-87.61953994048041,0.0,1
3760268.0,Betty Shabazz International Charter School,41.77509072035478,-87.63477518982906,1.0,1
2583304.0,WALTON ROOM,41.900147610500134,-87.62228781757699,3.0,1
2428079.0,REGGIO'S PIZZA EXPRESS (T3 G8),42.008536400868735,-87.91442843927047,5.333333333333333,3
2684113.0,DO-RITE DONUTS & CHICKEN,41.87856015362371,-87.63652387205532,0.0,1
2516847.0,S.K.Y.,41.85781773489261,-87.65796102681593,2.0,1
1879166.0,THE GREAT AMERICAN BAGEL/T1 B-14,42.008536400868735,-87.91442843927047,3.0,2
23301.0,John Garvy Elementary School,41.9763526249536,-87.79619832113984,2.5,4
2216086.0,"KIDS ACADEMY,LLC",41.76815716687521,-87.6876649883635,2.0,1
57451.0,MIDDLE EAST BAKERY & GROCERY,41.97629123440587,-87.66897680929686,3.0,2
3399494.0,MOVING EVEREST CHARTER SCHOOL,41.88825178615288,-87.75550107075298,1.0,1
86324.0,BOSTON MARKET #2520,41.9367209159054,-87.66870256330071,8.0,1
24891.0,PEIRCE,41.98342818917878,-87.66586537292214,1.5,2
1617572.0,MORE & MORE CANDY STORE,41.742812220652326,-87.70235268272313,0.0,1
3759938.0,TORRES ELEMENTARTY/ZIZUMBO ELEMENTARY/GARCIA HIGH,41.80940021157941,-87.73099367323172,2.0,1
2684566.0,NORTHSHORE ACADEMY FOR CHILDREN,41.99812041876117,-87.67412771972113,0.0,1
2419624.0,MORTAR AND PESTLE,41.937939792358364,-87.64447681700325,14.0,2
2689489.0,RESTAURANT ASSOCIATES,41.88594495760403,-87.65346178255953,2.0,1
1121856.0,POPEYE'S CHICKEN,41.812628989174634,-87.70639420409829,3.0,3
1223250.0,LOS SAUCES GROCERY,41.93128820014796,-87.77324145325423,6.0,2
2215627.0,WHIZ KIDZ LEARNING CENTER,41.77192426474994,-87.69394768163217,2.0,1
2215542.0,ROGER'S PARK CHILDREN'S CENTER,41.99812041876117,-87.67412771972113,1.0,2
2631164.0,TEA LEAF GARDEN,41.99765846224234,-87.68767204213614,4.333333333333333,3
2671297.0,JCYS IRIS & STEVEN PODOLSKY FAMILY CENTER,41.968821253748864,-87.68220088853327,3.5,2
2348667.0,HAPPY KIDS PRESCHOOL & DAYCARE CENTER,41.952999936869986,-87.77249897674953,1.0,1
1649356.0,CORNER BAKERY CAFE,41.88007510168006,-87.6324578753162,3.0,2
2374127.0,BLOOMING BUD DAYCARE,41.98538950526786,-87.69873407149943,6.666666666666667,3
1841156.0,FAST SUPER BURITTO,41.95428475504034,-87.6773557509826,6.5,2
1450.0,St. Ann School,41.85658359525156,-87.68150294820089,1.0,1
2671245.0,RINGO,41.925085303213265,-87.6649612904849,0.0,1
2583305.0,WALTON ROOM,41.900147610500134,-87.62228781757699,0.0,1
2583639.0,KUMIKO,41.8858070196617,-87.64417189465739,0.0,2
2021306.0,ENTENTE,41.93727241797709,-87.66552486724433,0.0,1
2522245.0,PASSION HOUSE CAFE,41.92934429527824,-87.70721753045883,15.0,1
2690292.0,KABOB KING GRILL,41.99765846224234,-87.68767204213614,6.0,1
1948872.0,EL CID TACOS #2,41.92976286483289,-87.70722323405842,12.666666666666666,3
3846211.0,ST. THERESE WEST,41.84203710648299,-87.65270384226547,2.0,1
2677669.0,OPUS,41.8794296730421,-87.62527091340576,8.25,4
2225387.0,ST. BARBARA SCHOOL,41.84203710648299,-87.65270384226547,0.0,1
31182.0,Parker C.P.C.,41.769118831440046,-87.63390203081289,1.0,1
2446871.0,SYMPHONY OF LINCOLN PARK,41.925330555308214,-87.66312243534863,8.5,2
14002.0,ALDI INC #10,41.81145154223639,-87.72357465442043,6.5,2
2204312.0,BRYN MAWR CARE,41.983252116437455,-87.65645479912388,0.5,2
3306130.0,KIPP BLOOM COLLEGE PREP ELEMENTARY SCHOOL,41.7935529153298,-87.64134487775173,1.0,1
2215625.0,ABC ACADEMY,42.004993924737526,-87.69795793241062,1.0,1
1898798.0,POCKETS,41.88158370759641,-87.652408263381,5.0,1
2368671.0,7-ELEVEN,41.99439639473516,-87.80239443586892,4.25,4
2594741.0,CHEESUS,41.884187507127805,-87.64111966683218,1.3333333333333333,3
23971.0,KELLOGG ELEMENTARY SCHOOL,41.72525314614666,-87.67719555499882,3.5,2
6021.0,GREEK ISLANDS RESTAURANT,41.87918309269135,-87.64742623446782,7.0,1
2641480.0,REGENTS MARKETS,41.802630048269855,-87.58447171338366,3.0,2
2608253.0,OMAKASE YUME,41.883052886559646,-87.64468860442474,0.0,1
2245833.0,WALGREENS,41.99293750421518,-87.66021032628072,2.5,2
2216044.0,SUNNYSIDE DAYCARE,41.963009878945854,-87.71740067919856,7.5,2
2550834.0,7 DAYS FOOD MART,41.90936168548472,-87.75811696605399,3.0,1
2615751.0,LET'S EAT THAI,41.85045102427,-87.65879785567869,4.333333333333333,9
2404722.0,SALSA PICANTE,41.899021069348024,-87.68677927520129,5.0,3
2307735.0,KEEPER'S KIDS,41.78654294207006,-87.69204396187506,5.0,1
2252227.0,JALAPENO GRILL,41.917572160779464,-87.69985903100972,19.0,3
2608219.0,65 POKE,41.88199433820508,-87.6397586848809,0.0,1
2158668.0,VEGAN PLATE,41.92526597195811,-87.66779312170318,10.0,1
2215663.0,KIDS WORLD DAY CARE,41.96048824521629,-87.77503159502413,2.0,1
2202619.0,PRITZKER COLLEGE PREP CHARTER,41.915186725167636,-87.73010225174556,3.0,1
2570161.0,CAPRIOTTI'S SANDWICH KINGS LLC,41.88514498935212,-87.65431536717279,4.0,1
2418182.0,GUS'S WORLD FAMOUS FIRED CHICKEN,41.88666389977879,-87.64934266534462,5.0,1
2245580.0,LAKEVIEW REHABILITATION AND NURSING CENTER,41.93263163257331,-87.64797278441709,4.5,2
32534.0,DUNKIN DONUTS,41.90452395740259,-87.66767409011773,3.0,1
2469752.0,GORDITAS ADRIAN'S,41.64936399206309,-87.54685344330039,2.0,1
1873308.0,"MANOLOS TAMALES, INC. #1",41.79595669469915,-87.70347960433394,9.333333333333334,3
2637320.0,LA MICHOACANA PREMIIUM,41.79875025743268,-87.72346641018879,5.0,1
2658305.0,SALSA PICANTE,41.899021069348024,-87.68677927520129,0.0,2
2215659.0,HAPPY HOLIDAY NURSERY & KINDERGARTEN,41.69262847127151,-87.6133140522167,1.0,1
2589539.0,SUBWAY,41.90935850137094,-87.77598653362747,0.0,1
1519918.0,BRANDY'S RESTAURANT,41.99534648478053,-87.80696582318247,3.5,2
2428445.0,THE GRAYSTONE TAVERN,41.94477276328082,-87.65410784813349,2.5,2
2522107.0,UNIVERSITY CHILDREN'S CENTER,41.89357131013786,-87.61594747652425,5.0,2
2215619.0,HLCDC DEVELOPMENT #2,41.88064378804554,-87.7421719266432,1.0,1
2215809.0,RAVENSWOOD COMMUNITY DAYCARE,41.970888597492355,-87.67939623289391,4.0,2
2641483.0,REGENTS MARKETS,41.802630048269855,-87.58447171338366,0.0,2
2463302.0,RONERO,41.88451799637232,-87.64730383120978,0.0,1
2676979.0,BODY FACTORY NUTRITION,41.801459089017484,-87.66241034937224,2.0,1
20071.0,Columbia Explorers,41.811056888806824,-87.70423480719234,3.0,1
2492802.0,MONTEALBAN,41.923926483609236,-87.77632683025247,8.666666666666666,3
2529235.0,GEORGE'S,41.79877258416171,-87.74149890973776,3.5,2
2670530.0,SKY DINE 311,41.877791648104406,-87.63652434443534,0.0,2
2678018.0,BUDACKI'S DRIVE IN,41.96807497181902,-87.67901960462584,1.3333333333333333,3
2026715.0,BRIDGEPORT FAMILY RESTAURANT,41.83069533520227,-87.64625091576728,3.8333333333333335,6
2549868.0,NANCYS PIZZA,41.88317183484875,-87.65213310038212,4.0,1
2616479.0,CONVENE,41.87988544030099,-87.62921159480324,1.5,2
1991748.0,SKY DINE 311,41.877791648104406,-87.63652434443534,5.5,2
26641.0,LANGSTON HUGHES,41.70536999334947,-87.62985092970249,1.5,2
2205599.0,HARMONY NURSING & REHAB CTR,41.97543959387946,-87.72648597803017,3.0,1
2684666.0,ALEXANDER'S,41.994391180074615,-87.67029582459736,7.5,2
2684303.0,MONTESSORI FOUNDATIONS OF CHICAGO,41.83020702073215,-87.68169307295167,0.5,2
2204614.0,MONTGOMERY PLACE,41.79379656505063,-87.58056290147832,0.0,1
2677227.0,NECESSARY & SUFFICIENT COFFEE,41.928351529514096,-87.71809710408122,4.0,3
2363766.0,LA TAPENADE   T3  H14,42.008536400868735,-87.91442843927047,2.5,2
2429041.0,SUSHI BURRITO,41.93503300287068,-87.64437894773916,3.5,2
2327129.0,BACINOS ITALIAN GRILL,41.93298721327045,-87.63652893636035,13.0,1
2653325.0,HOME RUN INN PIZZERIA,41.832700243247785,-87.61684215275643,0.0,2
1495075.0,BUDACKIS DRIVE-IN HOT DOGS,41.96807497181902,-87.67901960462584,5.75,4
2549869.0,NANCYS PIZZA,41.88317183484875,-87.65213310038212,0.0,1
24781.0,Piccolo Specialty School,41.90014610484065,-87.73129752546473,3.0,1
2665032.0,HOME RUN INN PIZZERIA,41.832700243247785,-87.61684215275643,0.0,1
2671044.0,DOLLAR TREE,41.75152941840924,-87.59248856477217,8.0,2
2113949.0,STAR LIGHT FOOD MARKET II,41.841604481753,-87.63191550340868,5.0,1
2215718.0,POWER DAY CARE CENTER,41.67044238066196,-87.64040311382024,4.0,1
2333622.0,I-CAFE SUKUR'S PLACE,41.95431818306882,-87.67476031983938,11.0,2
2163775.0,MARIANO'S FRESH MARKET,41.88055424541424,-87.64747040571781,7.333333333333333,3
2427669.0,CILANTRO TACO HOUSE,41.968522006933206,-87.71237950497346,11.0,1
2608331.0,SMOOTHIE JOINT,41.94457106068293,-87.65378324443094,6.0,2
2328112.0,FAIR DEALS,41.895301068393046,-87.72143405339754,8.0,1
34146.0,PRAIRIE TAP (T3 K4),42.008536400868735,-87.91442843927047,4.0,2
1140128.0,MCDONALD'S  (T3 HK FOOD COURT),42.008536400868735,-87.91442843927047,5.0,3
1120626.0,REGGIO'S PIZZA EXPRESS (T3-HK FOOD COURT),42.008536400868735,-87.91442843927047,8.5,2
1021782.0,Starbucks Coffee #2428,42.00471569947856,-87.66100295990694,4.0,1
2437083.0,5 RABANITOS,41.857836090111526,-87.67100647272235,4.0,1
2665419.0,CONVENE,41.87988544030099,-87.62921159480324,0.0,1
61208.0,SEVEN ON STATE STREET.,41.88347312241303,-87.62772975002918,12.0,1
1909522.0,MANCHU WOK (T3-H/K FOOD COURT),42.008536400868735,-87.91442843927047,3.5,2
22801.0,COOK ELEMENTARY SCHOOL,41.74526283804375,-87.65981189693636,2.5,2
1140745.0,O'BRIENS RESTAURANT & BAR (T3-HK FOOD COURT),42.008536400868735,-87.91442843927047,3.5,2
1981897.0,NORTHWEST INSTITUTE FOR CONTEMPORARY LEARNING,41.9023802784157,-87.75368234396647,4.0,1
2622051.0,FOODA,41.779661336898904,-87.64463773881644,1.5,2
80290.0,DYLAN'S TAVERN & GRILL,41.87995707099538,-87.64128000375057,6.0,3
2040683.0,EDWARDS (ANNEX),41.8055232490546,-87.72581892508391,0.0,1
2677672.0,OPUS,41.8794296730421,-87.62527091340576,0.0,2
2627322.0,"OFRENDA, INC.",41.84361887861791,-87.67547236453608,7.0,1
2657753.0,#1 DELI,41.76886618832226,-87.63709545616062,3.0,1
1879167.0,THE GREAT AMERICAN BAGEL/T3 K2,42.008536400868735,-87.91442843927047,5.0,2
1493295.0,ZAMZAM BANQUET HALL,41.93077761669432,-87.79524328878185,0.0,1
1596874.0,CHINA DELIGHT,41.90918903775967,-87.79082897908107,4.0,1
2569868.0,HUARACHES & QUESADILLAS MAMA QUINA,41.80061941881158,-87.71045584912062,3.0,1
36690.0,LEAMINGTON FOODS,41.88016817361682,-87.76253909209875,2.0,3
2501188.0,"31 DELI, INC",41.76886618832226,-87.63709545616062,0.0,1
2013419.0,YSABEL'S GRILL ASIAN CUISINE,41.953485015058135,-87.750248227467,3.3333333333333335,3
2560267.0,MAMA LUNA'S LOUNGE,41.9450927220515,-87.81702497150454,6.0,1
2204275.0,THOREK MEMORIAL HOSPITAL,41.95464082537165,-87.65156901235385,0.0,1
2595950.0,TBAAR,41.99806692579239,-87.66158910390902,2.0,1
2569420.0,EL ROJO GUSANO II,41.958424798533414,-87.67374277557971,19.0,2
25125.0,MICHELLA TERRACE,41.95317843969206,-87.75780441878463,0.0,1
2677671.0,OPUS,41.8794296730421,-87.62527091340576,0.0,2
2215893.0,WHIZ KIDS NURSERY CENTER INC.,41.707112812685075,-87.63620425242559,1.0,1
2600832.0,T&T'S RED HOTS,41.88184591068643,-87.7258541523999,0.0,1
1879164.0,THE GREAT AMERICAN BAGEL (T3-H10),42.008536400868735,-87.91442843927047,4.5,2
2016897.0,RICE & ROLL,41.97582181741593,-87.71172940864518,4.0,2
2550110.0,O KITCHEN,41.885809613331816,-87.6439073443582,1.0,2
10916.0,ALEXANDER'S RESTAURANT,41.994391180074615,-87.67029582459736,2.0,2
1954879.0,SHINE RESTAURANT,41.921932385038915,-87.64833660258915,0.0,1
1841223.0,PIATTO PRONTO,41.98426104455851,-87.66907287679672,2.0,1
2487637.0,HANUL FAMILY ALLIANCE,41.972405843174876,-87.70873681929555,9.0,2
23081.0,Edwards main and annex building,41.8055232490546,-87.72581892508391,5.0,1
2432423.0,FANNIE'S CAFE,41.960744763781896,-87.75400366103027,0.0,1
15769.0,THOREK MEMORIAL HOSPITAL,41.95464082537165,-87.65156901235385,6.0,1
2689697.0,BOLIVAR Y LINCOLN VENEZUELAN,41.943197684209125,-87.65405954840116,5.5,2
22761.0,Clissold,41.69305404481716,-87.68086190054576,2.0,1
12979.0,7-ELEVEN #16809,41.93833921191563,-87.77615138689676,6.0,1
1043591.0,BARBAKAN RESTAURANT,41.93803468310132,-87.76633200355475,0.0,1
2022125.0,"COYOTES RESTAURANT, INC.",41.85773127336358,-87.66335577631256,7.0,1
2475802.0,AVEC,41.88432104069269,-87.64342475334716,2.0,1
1926624.0,TACO BELL & LONG JOHN SILVER'S,41.923739299500106,-87.79134897916926,1.0,1
2428971.0,BLUE DOOR FARM STAND TOO,41.91809714268833,-87.64658724128225,8.0,1
2535343.0,MADONNA CAMPUS,41.95118226545089,-87.65765801910673,0.0,1
37881.0,THAI AREE HOUSE,41.94602897693361,-87.73546639404336,5.0,2
1879165.0,THE GREAT AMERICAN BAGEL (T3 ROTUNDA),42.008536400868735,-87.91442843927047,4.0,2
46775.0,TOAST,41.92193497846529,-87.64809461536863,10.0,1
1598049.0,CATALYST RANCH,41.88452928463143,-87.64494524641547,0.0,1
1516376.0,TARGET,41.93083391523972,-87.78913378754397,3.3333333333333335,3
2429057.0,"PALETERIA LA  MICHOACANA 1, INC.",41.78624118298355,-87.71077772448048,10.5,2
2689944.0,CHINKAY,41.93387296117733,-87.74653841434737,20.0,1
2121132.0,SUBWAY,41.983546994512714,-87.65810608824604,2.3333333333333335,3
16380.0,ADVOCATE TRINITY HOSPITAL,41.726329231442904,-87.56727090823563,0.0,1
1382934.0,SUBWAY SANDWICHES,41.931187333954206,-87.6770555951477,0.0,1
1592986.0,CARNITAS Y SUPERMERCADO EL GIGANTE INC,41.92600642686074,-87.75636298203145,14.5,2
26651.0,MAHALIA JACKSON ELEMENTARY SCHOOL,41.73409817903186,-87.64675678787916,3.5,2
2271476.0,"SODEXO AMERICA, LLC",41.8806992461244,-87.63972502663867,0.0,1
2601770.0,ROYAL FLAT CARIBBEAN JERK CUISINE,41.76638575429732,-87.57248700864004,10.5,2
2364283.0,SUPER SUB AND GYROS 2 INC.,41.7791184453953,-87.68575151846922,7.0,1
47512.0,JAIMITOS BURRITOS,41.91352238684326,-87.65294009283627,4.0,1
3096670.0,KIPP CHARTER ELEMENTARY,41.89148296872894,-87.74659826352843,0.5,2
34203.0,LA TAPENADE  (T1-B5),42.008536400868735,-87.91442843927047,1.0,2
2496153.0,PIZZERIA BRANDI,41.835749059464845,-87.6658416717942,4.0,1
2578953.0,TIGER CEVICHE,41.884187507127805,-87.64111966683218,0.0,1
2299114.0,VELVET TACO,41.90212753255816,-87.62850139922516,3.0,4
68487.0,KITSCH'N ON ROSCOE,41.94310456354472,-87.67867885196078,6.0,2
44790.0,NEW MODERN GRILL,41.93993844074498,-87.64911829546907,14.0,1
2363811.0,THE GERAGHTY,41.84607803530318,-87.67825009589394,0.0,1
25881.0,Wildwood,42.00747006588308,-87.77837089379373,1.0,2
2202622.0,ROWE-CLARK MATH & SCIENCE ACADEMY,41.89533477965775,-87.71805030259755,2.0,1
2069775.0,PAPA JOHNS PIZZA,41.86931406589003,-87.65625439904653,8.0,1
2528918.0,SuChi,41.883052886559646,-87.64468860442474,0.0,1
41897.0,CHUCK 'E' CHEESE'S,41.801670034831716,-87.70393836191948,1.0,1
2689806.0,ROOTS HANDMADE PIZZA - SECOND CITY/UTOPIAN TAILGAT,41.911494367763304,-87.63486809549644,0.0,1
1769881.0,DUNKIN DONUTS/BASKIN ROBBINS,41.785340191257184,-87.70317432384229,14.0,1
2488143.0,Sushi Joon,41.98134576518484,-87.69265967008852,4.5,2
1514750.0,AMATOS PIZZA,41.913647790626385,-87.6529239488956,8.0,1
1247262.0,TAVERN ON LITTLEFORT,41.95677163177934,-87.68075733672262,6.5,2
2358944.0,BARCELLO'S PIZZA,41.945689474851214,-87.73490602734594,8.666666666666666,3
2647767.0,GIGLIOS STATE STREET TAVERN,41.87146433662049,-87.62736908629603,4.5,4
2689695.0,FOXGLOVE COFFEE,41.85386830200632,-87.67821915483191,1.5,2
69607.0,DUNKIN DONUTS / BASKIN ROBBINS,41.95302136277807,-87.7869561311957,4.0,1
2636307.0,CHINA KITCHEN,41.97657772507766,-87.83676334804683,2.0,2
1848194.0,7 - ELEVEN,41.986905524452354,-87.77782278908025,0.0,1
2551845.0,BP GAS,41.99637159702214,-87.76427703822098,9.0,1
2298339.0,JUST JERK CAFE,41.75091157260958,-87.62048290701443,18.0,3
84319.0,BILLY GOAT (T1/C18 FOOD COURT),42.008536400868735,-87.91442843927047,3.5,2
1596616.0,"MEZZA GRILLED WRAPS AND PITA, INC",41.88197704758362,-87.63887583987513,11.0,2
2431752.0,DUKE'S,41.984618430365195,-87.76815926802585,3.75,4
64540.0,BERGHOFF CAFE (T1 C26),42.008536400868735,-87.91442843927047,5.0,2
22371.0,Bouchet Elementary School,41.76086092596284,-87.57603849408548,0.0,1
2621898.0,POLITAN ROW,41.883370342897926,-87.6542614631914,5.0,4
70205.0,Bouchet Modular Math and Science Academy,41.7624059442705,-87.57615846523925,0.0,1
2205571.0,ADVOCATE TRINITY HOSPITAL,41.726329231442904,-87.56727090823563,0.0,1
2496427.0,LUNA LLENA SPORTS GRILL,41.938565657391784,-87.75855584047643,7.0,3
2215605.0,PARK VIEW MONTESSORI SCHOOL #3,41.95472485219229,-87.6465823053273,3.0,1
2451378.0,FLACO'S TACOS,41.994677309223555,-87.65903118070459,2.5,4
2446479.0,SMART LOVE FAMILY SERVICES,41.921835372785665,-87.7072725345085,0.0,1
2289372.0,LIZ-NEY-LAND LEARNING CENTER,41.7839033300189,-87.7230553957536,5.0,2
2616831.0,LEFLOUR,42.00224676505933,-87.81681363623768,3.0,1
7545.0,THOMAS COFFEE SHOP,41.73684226984659,-87.5829466262428,2.0,1
2422801.0,IRIE TAVERN,41.94364614899898,-87.65382313998202,13.5,2
2215610.0,MOTHER'S TOUCH DAY CARE,41.764547157441456,-87.68574595379714,3.0,1
2088929.0,YEMEN RESTAURANT,41.967667844732325,-87.74018351190563,9.666666666666666,3
2689051.0,2337 MILWAUKEE,41.92375996879354,-87.69851607944803,9.0,1
2501605.0,ZACHI EXPRESS,41.94015821312763,-87.64455028174726,0.0,1
2609768.0,GUIDEPOST MONTESSORI AT MAGNIFICENT MILE,41.89097172346226,-87.62148346737622,4.0,1
33511.0,TAQUERIA EL AGUILA REAL,41.961298161733566,-87.70795210214149,11.0,1
2569510.0,"SOUP & SCOOPS, LLC",42.002389738392516,-87.81707622356394,7.0,3
2303640.0,WAGNERS BAKERY,41.85221557746692,-87.68024387885434,6.0,1
2328131.0,TURTLES,41.83468535402639,-87.63309454134783,5.0,1
2677463.0,THE LUNCHROOM,41.882093367301316,-87.63039164462683,0.0,1
2157363.0,SANDUNGA,41.96845444863656,-87.69461991509863,6.666666666666667,3
2463556.0,MIXTECO MEXICAN GRILL,41.93984552587924,-87.65110497449828,1.5,2
1542917.0,VOLO RESTAURANT,41.94332263059663,-87.67884909733532,6.0,1
2555908.0,7 SEAS DOLLAR & FOOD,41.735883858312064,-87.64913691423969,0.0,1
2293923.0,EL CONDE S.A.,41.799597459689494,-87.70358495558017,4.0,1
2665375.0,THE LOTUS BLACK,41.910751865596865,-87.66689090396886,0.0,2
2583393.0,RED FISH BLEU FISH,41.80195099472944,-87.58899848830144,6.0,1
1817276.0,PAT'S PIZZA,41.87396103697072,-87.63080445228692,8.0,1
2677462.0,THE LUNCHROOM,41.882093367301316,-87.63039164462683,0.0,1
1798526.0,ROUTE 66 PIZZA,41.71011639743625,-87.53255649991658,7.0,1
2341098.0,THE GREEN DOOR,41.89463702451064,-87.63726863440331,1.5,2
3528.0,MR BEEF,41.894277224762554,-87.63725825318113,5.0,1
1695816.0,VILLAGE PIZZA,41.89585612058927,-87.68664748817483,7.666666666666667,3
37803.0,CHIU'S GREAT WALL RESTAURANT,41.85388797248053,-87.63450742813663,5.0,4
2652969.0,YEMEN RESTAURANT,41.967667844732325,-87.74018351190563,4.333333333333333,3
2496844.0,PITA O' GRILLE,41.98354587269248,-87.65818693624335,0.0,1
2192890.0,FRANK'S CHICAGO SHRIMP HOUSE,41.95344289157839,-87.75439576492936,9.0,1
2609440.0,GHIN KHAO EAT RICE,41.852228609798445,-87.67948332568864,4.0,1
16712.0,INTERNATIONAL SUPERMARKET INC,41.81056567737924,-87.66517051690172,7.5,2
2059922.0,La PALOMA GROCERY STORE,41.77866865107635,-87.73115964657633,4.5,2
2102697.0,MO DAILEY'S PUB & GRILLE,41.99148225930689,-87.7978116394828,5.0,2
2689945.0,7 SEAS FOOD & DELI INC.,41.735883858312064,-87.64913691423969,12.0,2
2689052.0,2337 MILWAUKEE,41.92375996879354,-87.69851607944803,0.0,1
29401.0,DISNEY MAGNET,41.95680712260342,-87.64611750224417,7.0,1
2215544.0,CHILDREN'S CENTER INC,41.661326016281905,-87.64121030558698,2.0,1
78302.0,EL ALEGRE BURRITO,41.92388497356633,-87.80619241407985,6.0,2
2637301.0,FOREVER YOGURT,41.931465996205475,-87.68656175913836,12.5,2
2665376.0,THE LOTUS BLACK,41.910751865596865,-87.66689090396886,9.5,2
2689644.0,MOMO FACTORY,41.94015821312763,-87.64455028174726,4.5,2
2677149.0,BROWN BAG SEAFOOD CO.,41.87856015362371,-87.63652387205532,0.5,2
2689937.0,MERCY ASIAN FOOD,41.9976889995745,-87.69849448888158,4.0,1
2437275.0,UMAMI BURGER,41.88422707893843,-87.65151813840151,8.5,2
2534807.0,THE HAMPTON SOCIAL,41.8918694700262,-87.62274858399921,3.6666666666666665,3
2555780.0,LITTLE BRANCH CAFE,41.86593103671971,-87.62149419520398,5.0,1
2360157.0,PANDA EXPRESS,41.94654251477401,-87.70247583120907,4.0,1
2615645.0,LA BAGUETTE BAKERY,41.78639755002676,-87.70320568633967,5.0,1
1909742.0,PHILLY'S BEST,41.877843584048115,-87.6467818341113,7.0,1
31036.0,"ITALIAN FIESTA PIZZERIA, INC",41.747086098940834,-87.64408438293029,6.5,2
2608171.0,SHAWARMA STOP,41.9361719122101,-87.65340849377955,7.5,4
2470573.0,HAMPTON INN,41.88373719653956,-87.64286160763208,0.0,1
2529296.0,AROUND THE WAY MINI MART,41.883966609047185,-87.75534386759125,2.0,1
69457.0,Acad. Of Scholastic Ach,41.880420127309684,-87.74250355816393,0.0,1
2595620.0,LAO SZE CHUAN,41.85309845931148,-87.63460289479191,13.0,1
27835.0,GALA BANQUETS,41.98401086554883,-87.77517246896801,1.0,2
2689123.0,"ARAMARK SERVICES, INC",41.87225870806733,-87.62609460974379,1.5,2
2040649.0,HOLY FAMILY LUTHERAN SCHOOL,41.86988498075887,-87.7113088987269,0.0,1
2528763.0,TAYLORMADE CUE,41.77193273410113,-87.64443484974524,10.0,1
2240749.0,THE GARDNER SCHOOL,41.88146302536488,-87.65966034955883,2.0,1
2373877.0,SNOW DRAGON,41.930082886392576,-87.64368253576015,8.0,2
25341.0,Sherman,41.79978771903142,-87.65025482783079,1.5,2
25693.0,ROSEBUD CAFE,41.86940905403705,-87.66419709016535,6.0,2
2412516.0,OYSTER ON HALSTED,41.91775186077485,-87.64863789225483,7.5,2
31782.0,CROATIAN CULTURAL CENTER OF CHICAGO,41.99741971500812,-87.70142268157917,3.0,1
2589296.0,ICE CREAM LAS FUENTES,41.93701599774786,-87.76629652776613,0.0,2
2678083.0,MIKKEYS 47 EXPRESS LLC,41.809317684345686,-87.61371443505487,10.666666666666666,3
51664.0,BLACKBIRD,41.884320409140116,-87.64360139964732,2.0,1
2304758.0,JOHN'S LIVE POULTRY,41.92372038645528,-87.77549546183954,2.6666666666666665,3
2368683.0,SALERO,41.88432009326192,-87.64368972279748,0.0,1
2355266.0,ADLER SCHOOL INC,41.968553831007675,-87.68548253142126,5.5,2
2615723.0,COFFEE LAB,41.93317720763094,-87.65936357447276,2.5,2
2368244.0,LOU MALNATI'S PIZZERIA,41.96074324981876,-87.68354840044978,2.0,1
2589605.0,PANCAKE CAFE,41.95127391161999,-87.64947156399768,10.0,2
2470582.0,HOMEWOOD SUITES,41.883800252016215,-87.64286348545521,0.0,1
14192.0,CHARCOAL DELIGHTS,41.97564376186505,-87.70783409240099,17.0,1
25946.0,BLACK SHEEP,41.9903656885798,-87.69353289993734,9.0,1
2647430.0,FOOD FIRST CHICAGO,41.99038358477244,-87.6903184871278,7.0,3
2555533.0,GYU-KAKU RESTAURANT,41.933180956659406,-87.64464941489626,3.0,1
2215620.0,WONDERLAND DAY CARE,41.93823374859654,-87.78428872410743,0.0,1
23261.0,FOSTER PARK ELEMENTARY SCHOOL,41.73842619798184,-87.66813597481288,2.0,1
2470641.0,ROTI,41.885847208704554,-87.62509485736301,1.0,1
2298797.0,PRAIRIELAND MONTESSORI,41.94833926709654,-87.6748746975132,0.0,1
2683446.0,COFFEE LAB & ROASTERS,41.93317720763094,-87.65936357447276,0.0,2
2683428.0,MONTROSE DELI,41.96042826406876,-87.7626656720388,0.0,1
2529177.0,KALEIDOKIDS,41.92130255901957,-87.67760256334529,8.5,2
20886.0,MONTROSE DELI & FRUIT MARKET,41.96042826406876,-87.7626656720388,14.0,1
2177836.0,BULERIAS TAPAS BAR,41.948664225929576,-87.66905078783824,12.0,1
2511163.0,"LA SALLE CAFE LUNA, INC.",41.874311649991895,-87.6254032675253,6.0,1
1823622.0,TINY LOUNGE,41.96112142040857,-87.68396862492989,0.0,1
2405902.0,THE CAJUN CONNOISSEUR LLC,41.85045102427,-87.65879785567869,2.6666666666666665,3
2202395.0,63 BAR & GRILL,41.997594186195435,-87.66034486500234,0.0,1
2517129.0,BULL DOG ALE HOUSE,41.870502077951755,-87.62734617773437,7.0,2
2600906.0,GORILLA SUSHI,41.96828872955171,-87.71367720190815,11.0,1
57689.0,LITTLE DENNIS,41.77893000705904,-87.69859994691998,15.0,2
2589073.0,GOLDEN FISH & CHICKEN,41.779173106768134,-87.69698885824073,7.0,1
2578374.0,TERIYAKI BOWL,41.88390509704504,-87.70605925083947,3.0,2
34183.0,SUMMER HOUSE,42.008536400868735,-87.91442843927047,3.5,2
2215643.0,CENTRO NUESTRO CHILD DEVELOPMENT CENTER,41.90293279133458,-87.7076938649049,1.0,1
1991820.0,RED SNAPPER FISH CHICKEN & PIZZA,41.880236543865834,-87.7572203921175,7.666666666666667,3
3080659.0,ROSELAND SENIOR SATELLITE CENTER,41.70460868112854,-87.6207129341579,0.0,1
2203492.0,LILLIE'S Q,41.884187507127805,-87.64111966683218,0.0,1
34185.0,WICKER PARK SEAFOOD AND SUSHI BAR (T2 MAIN HALL),42.008536400868735,-87.91442843927047,4.0,2
2469779.0,L & L ACADEMY AND PRESCHOOL,41.92497231271773,-87.64025215402182,4.0,1
1969955.0,CHICKEN WORKS AND SALAD CO.,41.95385813673397,-87.7199979868619,6.0,1
2646756.0,TBD,41.89571882183127,-87.61873143015464,3.0,2
2608056.0,O-MANNY MEXICAN RESTAURANT,41.953627922832354,-87.71947320701166,0.0,2
2664105.0,DOPPIO COFFEE HOUSE,41.937724818923385,-87.66631958490133,1.0,2
2523672.0,LOOMIS CITGO INC.,41.73597328807627,-87.65806837861354,4.0,1
2476370.0,GODDESS AND THE BAKER,41.88670659265085,-87.63162996998051,3.0,1
2447134.0,LITTLE PICKLE,41.924461911888464,-87.71957547584789,6.0,1
22281.0,JOPLIN ELEMENTARY SCHOOL,41.749340824311474,-87.66932902916794,2.0,1
1741003.0,TAQUERIA EL CHARO DE SAN FRANCISCO,41.702619232856534,-87.534308773127,11.0,3
2664090.0,TBD,41.89571882183127,-87.61873143015464,0.0,1
2684391.0,TOSTINI,42.007932100342174,-87.6710036288956,3.0,1
2483908.0,CHEPE'S TACOS,41.854694701707345,-87.67576513516751,2.0,1
1998846.0,Pastoral,41.884187507127805,-87.64111966683218,5.5,2
2677857.0,DOLLAR TREE #07725,41.84428700646609,-87.71387967140731,2.0,1
2463091.0,Chop Suey Huang,41.97597608993619,-87.6924942225335,23.0,1
23914.0,CHICKEN HUT,41.94009690438851,-87.64454836666702,9.0,1
2428168.0,NAANSENSE,41.880144356026875,-87.64099297246834,0.0,1
2225302.0,NORTHEAST CENTER (LEVY),41.968635309313186,-87.6800056683545,0.0,1
2184967.0,BRASA ROJA RESTAURANT,41.946270550939566,-87.72754493145142,9.0,1
2609439.0,THE TAMALE SPACESHIP,41.85058668017878,-87.67074548829262,5.0,2
2556107.0,HUTCH AMERICAN KITCHEN AND BAR,41.973261367299926,-87.66762285692627,5.0,3
2079685.0,WEBSTER'S WINE BAR,41.92884909944806,-87.7068172134966,9.333333333333334,3
34157.0,WOLFGANG PUCK (T1 B7),42.008536400868735,-87.91442843927047,2.0,2
2626774.0,HAKKA BAKKA,41.885691117841525,-87.6522896923192,3.8,5
1139942.0,LUKE'S BEEF & PIZZA,41.937289633353735,-87.80687098480557,3.0,2
2385472.0,HOT 'G' DOG,41.97284251510629,-87.66782239421524,8.0,1
1981908.0,Queen of All Saints,41.994587008562675,-87.744563423364,5.0,1
2262538.0,ARAMARK-SOLDIER FIELD,41.862628294037634,-87.61503109411332,8.0,2
2631117.0,JIAN,41.884187507127805,-87.64111966683218,2.0,1
2437262.0,LITTLE GREEK CORNER INC.,41.884187507127805,-87.64111966683218,0.0,1
2626305.0,"EL AZTECA SANCHEZ, INC.",41.85045102427,-87.65879785567869,1.5,2
23369.0,EAST OF EDENS,41.9971470073763,-87.7484909596666,17.0,1
2109251.0,MARIO'S BUTCHER SHOP,41.88004498075895,-87.77049337933958,7.0,1
30212.0,POPEYE'S CHICKEN,41.93878412940402,-87.75863713615965,12.5,2
2541870.0,"L & L LP INFANT, CORP.",41.92492414839932,-87.64022308968053,0.0,1
2392023.0,SMALLCAKES,41.937724818923385,-87.66631958490133,0.0,1
2560363.0,HERO COFFEE BAR,41.88177941104997,-87.65438026900868,7.0,1
1248503.0,ALICE & FRIENDS VEGETARIAN CAFE,41.987464806694895,-87.6603343733537,3.0,1
2684671.0,Pastoral,41.884187507127805,-87.64111966683218,0.0,1
2221191.0,GEORGE E TAYLOR CHILD DEVELOPMENT CENTER,41.90292929858984,-87.70804857041449,1.0,1
2134095.0,REVOLUTION STEAK HOUSE,41.944505561214896,-87.64537149797675,0.0,1
2451351.0,FLAT TOP GRILL,41.88133480594687,-87.62633546646605,4.0,1
2215884.0,HOUSE OF KIDS,41.94539701438075,-87.80571712400827,1.0,1
2488830.0,PISOLINO,41.93928538446442,-87.69733595145591,3.5,2
2518015.0,BRICKHOUSE TAVERN,41.948422040248445,-87.65732463824295,8.0,3
2298798.0,PHO'S THAI CUISINE,41.94250592179978,-87.67079776903307,13.0,1
2583931.0,REDLINE VR,41.96712524902067,-87.6748095703753,1.5,2
2458132.0,INCOME TAX,41.990696471643766,-87.66014073065755,4.0,1
2385784.0,PERFECT BEGINNINGS CHILD DEVELOPMENT CENTER,41.677685065833224,-87.65901954921286,2.5,2
1844144.0,"SUNVIEW GROCERY & PRODUCE, INC.",41.777915318530674,-87.7744623742247,7.428571428571429,7
1768216.0,JIMMY JOHN'S,41.86607358683167,-87.62426767322484,5.0,1
3759896.0,ACERO JOVITA IDAR CHARTER SCHOOL,41.80106790853049,-87.70883469410418,2.6666666666666665,3
2350062.0,LAKESIDE ACADEMY,41.71187594645062,-87.53513236075923,4.0,1
2348764.0,DE QUAY,41.92687231925592,-87.650968355266,0.0,1
1998968.0,NEW SUPER SUB AND GYROS,41.771927701832006,-87.69369337936176,8.0,1
2589092.0,THE BLACK FIRE BRIGADE ORG.,41.74048386093074,-87.70228691835008,2.5,2
2641368.0,TZUCO / TALES / PANANGO,41.89556402726561,-87.62831821079553,0.0,1
2684475.0,K & H FOOD MART PLUS,41.90551187664208,-87.72511200015292,1.0,1
1145606.0,LA CEBOLLITA RESTAURANT,41.80764585138776,-87.73272527973798,3.5,2
2641367.0,TZUCO / TALES / PANANGO,41.89556402726561,-87.62831821079553,1.0,1
2671117.0,CONVENE,41.88052759161976,-87.63562385358797,0.0,2
1737982.0,J.P. GRAZIANO GROCERY CO INC.,41.88425670381661,-87.64982670264364,3.0,1
2684873.0,JIMMY JOHNS 3106,41.87252753139634,-87.67744169620713,0.0,1
1358027.0,THE CHOPPING BLOCK,41.96790067768611,-87.68794065120797,4.0,1
2528511.0,LA BOMBA RESTAURANT,41.91728108852338,-87.70785660455108,16.0,5
2594950.0,TAQUERIA EL DORADO # 3,41.92602224894322,-87.649782209964,0.0,1
2689649.0,JIMMY JOHNS,41.95256564111005,-87.81127429615809,0.0,1
2298331.0,CARNITAS URUAPAN,41.85763234806772,-87.6697745345797,3.0,1
1620340.0,FIRST SLICE,41.96161934485583,-87.67383267401581,2.0,1
6503.0,HUB'S GYROS II,41.98222979264743,-87.69383949704255,14.0,1
2647921.0,BOKEH,41.96716992383398,-87.7085787033688,0.0,2
1243865.0,JJ FISH,41.73558550639893,-87.67022566460538,9.5,2
1964807.0,PRINCE FOOD MART,41.906573215648,-87.68726808937518,0.0,1
1817934.0,GAELIC IMPORTS,41.96852535557429,-87.78743940246437,11.0,1
2671113.0,CONVENE,41.88052759161976,-87.63562385358797,0.0,2
36126.0,LAWN MAGIC LOUNGE,41.769772014709886,-87.7226794740646,9.5,2
2102640.0,ST. ROBERT BELLARMINE,41.96486565617353,-87.77868958463064,4.0,1
2647920.0,BOKEH,41.96716992383398,-87.7085787033688,12.5,2
1953757.0,Fifolet Cajun,41.903311984082535,-87.67657337106594,16.0,2
48972.0,THE ORIGINAL NICKS GYROS,41.97671902984532,-87.78800131348771,17.0,1
2671118.0,CONVENE,41.88052759161976,-87.63562385358797,0.0,2
1380524.0,LUCIANO'S GROCERY-18TH ST,41.857856567514325,-87.66941959556328,7.0,1
2215932.0,IRVING PARK INFANT TODDLER CENTER,41.96132810515034,-87.70341967620591,0.5,2
2683676.0,ROOSEVELT UNIVERSITY COFFEE SHOP,41.876248128035826,-87.62441918459099,5.0,3
3759848.0,ACERO VICTORIA SOTO HIGH SCHOOL,41.80175621018816,-87.71098825548948,2.0,1
2671036.0,PHILZ COFFEE,41.924250410054995,-87.64687752309653,3.0,1
2664128.0,THE LEARNING PLACE,41.75852366871204,-87.61480538742025,9.5,2
2671110.0,CONVENE,41.88052759161976,-87.63562385358797,12.5,2
